Institution Code	Catalog Number	Scientific Name	Collector	Collector Num Prefix	Collector Num	Collector Num Suffix	early J date	late J date	Date Collected	County	Elevation	Locality	Latitude	Longitude	Datum	Link Back	
CHSC	CHSC64060	Azolla filiculoides	B. Castro; L. P. Janeway, M. Halterman, C. Pidgeon		247		2447086	2447086	1987-10-17	Butte	20 m	Graylodge Waterfowl Management Area, ca. 0.5 mi NW of the headquarters.	39.328056	-121.846389	NAD 1983	<a href="https://ucjeps.berkeley.edu/cgi-bin/new_detail.pl?&uk=CHSC64060" target="_blank">View Details</a>	
SD	SD244838	Azolla filiculoides	Jon P. Rebman, Layla Aerne-Hains, Carl Bell, & David Thompson		28614		2456794	2456794	May 16, 2014	San Diego	1200 m	Manzanita Band of Kumeyaay Nation Reservation: northwest of Boulevard; approx. 4.5 miles north of the Golden Acorn Casino & I-8: vicinity of Manzanita Lake	32.757560	-116.323440	not recorded	<a href="https://ucjeps.berkeley.edu/cgi-bin/new_detail.pl?&uk=SD244838" target="_blank">View Details</a>	
RSA	RSA0118070	Azolla filiculoides	Sarah J. J. De Groot, Rachel Darney-Lane		7957		2457576	2457576	2016-07-06	Ventura	82m	The Nature Conservancy McConica Ranch property; west of Santa Paula and south of Highway 126. Along the Santa Clara River north of South Mountain and South Mountain Road.	34.355970	-119.031720	NAD83	<a href="https://ucjeps.berkeley.edu/cgi-bin/new_detail.pl?&uk=RSA0118070" target="_blank">View Details</a>	
SBBG	SBBG126936	Azolla filiculoides	D. Keil with V. L. Holland, L. D. Oyler and W. Ferren		25574		2449906	2449906	7-Jul-1995	Santa Barbara		pond in triangle formed by San Antonio Rd W and Lompoc-Casmalia Rd intersection; Vandenberg Air Force Base	34.784300	-120.540700		<a href="https://ucjeps.berkeley.edu/cgi-bin/new_detail.pl?&uk=SBBG126936" target="_blank">View Details</a>	
UCR	UCR273970	Azolla filiculoides	Mitch Provance	815-	60		2457245	2457245	2015-Aug-10	Tulare	506 m	Foothills of the Eastern San Joaquin Valley, Hungry Hollow, 7 mi due E of Terra Bella, transmission corridor, 2.3 mi S of Deer Creek	35.962110	-118.918310	not recorded	<a href="https://ucjeps.berkeley.edu/cgi-bin/new_detail.pl?&uk=UCR273970" target="_blank">View Details</a>	
CAS-BOT-BC	CAS-BOT-BC68345	Azolla filiculoides	Peter Rubtzoff		574	A	2433863	2433863	August 4, 1951	Sonoma		Pitkin Marsh, near Forestville - Northern half of Lower Marsh	38.457674	-122.867745		<a href="https://ucjeps.berkeley.edu/cgi-bin/new_detail.pl?&uk=CAS-BOT-BC68345" target="_blank">View Details</a>	
CHSC	CHSC24883	Azolla filiculoides	T. L. Reynolds		51		2442886	2442886	1976-04-17	Yolo	60 m	In Putah Creek ca. 50 yds s of Road 128 and ca. 10 yds nw of Low Water Bridge, 4.5 mi sw of Winters.	38.494167	-122.028611	NAD 1983	<a href="https://ucjeps.berkeley.edu/cgi-bin/new_detail.pl?&uk=CHSC24883" target="_blank">View Details</a>	
CAS-BOT-BC	CAS-BOT-BC66206	Azolla filiculoides	Henry M. Pollard	s.n.			2440758	2440758	June 20, 1970	Ventura		Coyote Creek north of Santa Ana Road bridge, Foster Park	34.359000	-119.316000	Terrain Nav. v. 8.7 (copied from SBBG42614)	<a href="https://ucjeps.berkeley.edu/cgi-bin/new_detail.pl?&uk=CAS-BOT-BC66206" target="_blank">View Details</a>	
RSA	RSA167849	Azolla filiculoides	Robert F. Thorne, Percy C. Everett		33484		2438433	2438433	1964-02-07	Los Angeles	152m	Santa Catalina Island. Along creek in Middle Canyon below dam.	33.356395	-118.445899	WGS84	<a href="https://ucjeps.berkeley.edu/cgi-bin/new_detail.pl?&uk=RSA167849" target="_blank">View Details</a>	
CHSC	CHSC100226	Azolla	John Dittes; Josephine Guardino		1439	A	2454081	2454081	2006-12-11	Los Angeles	598 m	Western Transverse Ranges; San Gabriel Mountains; Big Tujunga Canyon; ca. 1.8 air-miles SW of Big Tujunga Dam, ca. 1.6 air-miles NE of Mt. Lukens, ca. 0.9 air-mile SE of Big Tujunga USFS Station; in shallow water and in wet sand at edge of Big Tujunga Creek.	34.278333	-118.213889	NAD 1983	<a href="https://ucjeps.berkeley.edu/cgi-bin/new_detail.pl?&uk=CHSC100226" target="_blank">View Details</a>	
SD	SD194675	Azolla filiculoides	Jeannie Gregory, K. Rich		2109		2454169	2454169	Mar 09, 2007	San Diego	494 m	Ramona; Mount Gower Open Space Preserve; at dead end of Gunn Stage Road ca 2 mi N of intersection with San Vicente Road.	33.019370	-116.793950	not recorded	<a href="https://ucjeps.berkeley.edu/cgi-bin/new_detail.pl?&uk=SD194675" target="_blank">View Details</a>	
HSC	HSC65732	Azolla filiculoides	R. F. Thorne, D. Propst, Mark Hoefs		45109		2442303	2442303	12 Sep 1974	Los Angeles	107 m	Cottonwood Canyon below Rancho Escondido, Santa Catalina Island	33.385857	-118.450920	NAD27	<a href="https://ucjeps.berkeley.edu/cgi-bin/new_detail.pl?&uk=HSC65732" target="_blank">View Details</a>	
RSA	RSA202055	Azolla filiculoides	Henry M. Pollard	s.n.			2437927	2437927	1962-09-19	Ventura		in Coyote Creek, ca. 1/4 mile north of Ventura River bridge, Foster Park.	34.359000	-119.316000	NAD27	<a href="https://ucjeps.berkeley.edu/cgi-bin/new_detail.pl?&uk=RSA202055" target="_blank">View Details</a>	
RSA	RSA607697	Azolla filiculoides	Scott D. White		6011		2450758	2450758	1997-11-05	Los Angeles	7 m	Malibu Coast: Mouth of Trancas Cyn., north of Pacific Coast Hwy. USGS Point Dume quad. 34 deg 2'N, 118 deg 50.5'W	34.033333	-118.841667	not recorded	<a href="https://ucjeps.berkeley.edu/cgi-bin/new_detail.pl?&uk=RSA607697" target="_blank">View Details</a>	
CAS-BOT-BC	CAS-BOT-BC68336	Azolla filiculoides	John H. Thomas		3649		2434675	2434675	Oct. 24, 1953	Santa Cruz		Along beach at Davenport Landing	37.023333	-122.215000	not recorded	<a href="https://ucjeps.berkeley.edu/cgi-bin/new_detail.pl?&uk=CAS-BOT-BC68336" target="_blank">View Details</a>	
UCD	UCD74463	Azolla filiculoides	J. E. Sandoval		61		2449958	2449958	28 Aug 1995	Merced	17 m	Great Valley Grasslands State Park (encompasses the former Fremont Ford State Recreation Area). South of the town of Stevinson, 1 mi. south of Hwy 140 on Hwy 165.	37.300000	-120.916667	not recorded	<a href="https://ucjeps.berkeley.edu/cgi-bin/new_detail.pl?&uk=UCD74463" target="_blank">View Details</a>	
RSA	RSA741420	Azolla filiculoides	Justin M. Wood		257		2454803	2454803	2008-12-02	Riverside	290m	City of Temecula, Murrieta Creek, downstream of 1st street bridge.	33.483333	-117.141667	not recorded	<a href="https://ucjeps.berkeley.edu/cgi-bin/new_detail.pl?&uk=RSA741420" target="_blank">View Details</a>	
UC	UC1733494	Azolla microphylla	A. C. Sanders, P. MacKay & C. L. Sanders		17898		2449992	2449992	Oct 1 1995	San Bernardino	944 m	San Bernardino Mountains/southern Mojave Desert; Mojave River just above the Mojave River Forks Dam, W of Arrowhead Lake Road from Hesperia	34.350000	-117.258330	not recorded	<a href="https://ucjeps.berkeley.edu/cgi-bin/new_detail.pl?&uk=UC1733494" target="_blank">View Details</a>	
UC	UC1789109	Azolla filiculoides	A. C. Sanders, P. J. MacKay, S. D. White, C. L. Sanders		15698		2449614	2449614	Sep 18 1994	San Bernardino	1494 m	San Bernardino Mountains: Clarks Ranch (site) along the Seven Pines Road, ca. 0.25 mi E of Deer Creek, Santa Ana River Canyon	34.181667	-116.976670	not recorded	<a href="https://ucjeps.berkeley.edu/cgi-bin/new_detail.pl?&uk=UC1789109" target="_blank">View Details</a>	
RSA	RSA0014977	Azolla filiculoides	Justin M. Wood, D. M. Ray		2679		2455453	2455453	2010-09-13	San Bernardino	1480m	Clark s Ranch, accessed via Seven Pines Road.	34.181508	-116.978783	not recorded	<a href="https://ucjeps.berkeley.edu/cgi-bin/new_detail.pl?&uk=RSA0014977" target="_blank">View Details</a>	
CHSC	CHSC46165	Azolla filiculoides	Lowell Ahart		3214		2444875	2444875	1981-09-27	Butte	73 m	About 1/8 mile north-east of the intersection of Lower Wyandotte Road and Upper Palermo Road, about 4 miles north-east of Palermo.	39.468611	-121.525556	NAD 1983	<a href="https://ucjeps.berkeley.edu/cgi-bin/new_detail.pl?&uk=CHSC46165" target="_blank">View Details</a>	
CHSC	CHSC112240	Azolla microphylla	Lowell Ahart		18550		2456403	2456403	2013-04-20	Butte	49 m	In Wilson Creek, about 40 yards southwest of the oak trees, about 1/2 mile north of the barn, about 3/4 mile north of the Honcut Cemetary, about 3 3/4 miles (air) northeast of Honcut.	39.351667	-121.478333	NULL	<a href="https://ucjeps.berkeley.edu/cgi-bin/new_detail.pl?&uk=CHSC112240" target="_blank">View Details</a>	
RSA	RSA628901	Azolla microphylla	Mary DeDecker		1863		2439979	2439979	1968-05-02	Inyo	1310 m	Owens Valley: Hogback Creek	36.662800	-118.146300	WGS84	<a href="https://ucjeps.berkeley.edu/cgi-bin/new_detail.pl?&uk=RSA628901" target="_blank">View Details</a>	
RSA	RSA627387	Azolla mexicana	A. C. Sanders, P. Mackay, C. L. Sanders		17898		2449992	2449992	1995-10-01	San Bernardino	944 m	San Bernardino Mtns./ southern Mojave Desert: in the dry bed of the Mojave River just above the Mojave River Forks Dam, W of Arrowhead Lake Road from Hesperia.	34.350000	-117.258333	not recorded	<a href="https://ucjeps.berkeley.edu/cgi-bin/new_detail.pl?&uk=RSA627387" target="_blank">View Details</a>	
RSA	RSA0113941	Azolla filiculoides	LeRoy Gross, Sarah J. De Groot		7715		2457633	2457633	2016-09-01	Ventura	82m	Loughman Property; East of the Santa Paula Creek junction. South of Highway 126, off of S. Hallock Dr. Started near 34.35610N 119.03311W, ended near 34.35288N 119.03742W.	34.352880	-119.037420	not recorded	<a href="https://ucjeps.berkeley.edu/cgi-bin/new_detail.pl?&uk=RSA0113941" target="_blank">View Details</a>	
CAS-BOT-BC	CAS-BOT-BC53697	Azolla filiculoides	Peter Raven; Henry J. Thompson		14676	A	2436860	2436860	October 18, 1959.	Los Angeles	220 m	Santa Monica Mountains - north arm of Malibu Lake	34.111600	-118.756500	WGS84	<a href="https://ucjeps.berkeley.edu/cgi-bin/new_detail.pl?&uk=CAS-BOT-BC53697" target="_blank">View Details</a>	
RSA	RSA717048	Azolla filiculoides	Fred M. Roberts, Chris M. Barnhill		6281		2453641	2453641	2005-09-27	Orange	27m	San Juan Capistrano: San Juan Creek wash, east of La Novia Road bridge, 1.4km E Mission San Juan Capistrano.	33.502222	-117.646944	not recorded	<a href="https://ucjeps.berkeley.edu/cgi-bin/new_detail.pl?&uk=RSA717048" target="_blank">View Details</a>	
GMDRC	GMDRC5121	Azolla filiculoides	J. Andre, G. L. Clifton		18327		2455709	2455709	May 27 2011	Inyo	1237 m	Owens Valley: along Lubken Rd, approx 1 mi. west of US 395	36.542433	-118.061967	NAD83	<a href="https://ucjeps.berkeley.edu/cgi-bin/new_detail.pl?&uk=GMDRC5121" target="_blank">View Details</a>	
CAS-BOT-BC	CAS-BOT-BC68356	Azolla filiculoides	John Thomas Howell		39441		2438202	2438202	June 21, 1963	Monterey		Along Highway US 101, Prunedale	36.779611	-121.668696	Geolocate (copied from RSA201384)	<a href="https://ucjeps.berkeley.edu/cgi-bin/new_detail.pl?&uk=CAS-BOT-BC68356" target="_blank">View Details</a>	
CHSC	CHSC44628	Azolla filiculoides	Vernon Oswald		2913		2446936	2446936	1987-05-20	Butte	80 m	Butte Creek Canyon Ecological Reserve on the s side of Butte Creek, ne of the Skyway.	39.707500	-121.746667	NAD 1983	<a href="https://ucjeps.berkeley.edu/cgi-bin/new_detail.pl?&uk=CHSC44628" target="_blank">View Details</a>	
CAS-BOT-BC	CAS-BOT-BC66105	Azolla filiculoides	Peter H. Raven		16645		2437553	2437553	10 September 1961	San Bernardino	822 m	along Mojave River just east of Victorville	34.537937	-117.290734	Geolocate (copied from JEPS11533)	<a href="https://ucjeps.berkeley.edu/cgi-bin/new_detail.pl?&uk=CAS-BOT-BC66105" target="_blank">View Details</a>	
RSA	RSA751897	Azolla filiculoides	Justin M. Wood, Joy England		1212		2455040	2455040	2009-07-27	San Bernardino	351m	Chino Hills State Park. McDermont Spring.	33.916667	-117.741667	not recorded	<a href="https://ucjeps.berkeley.edu/cgi-bin/new_detail.pl?&uk=RSA751897" target="_blank">View Details</a>	
UCR	UCR132769	Azolla filiculoides	A. C. Sanders, P. J. MacKay, Scott D. White, C. L. Sanders		15698		2449614	2449614	1994-Sep-18	San Bernardino	1494 m	San Bernardino Mtns, Clark's Ranch (site) along the Seven Pines Rd, c. 0.25 mi east of Deer Creek, Santa Ana River Canyon	34.181670	-116.976670	not recorded	<a href="https://ucjeps.berkeley.edu/cgi-bin/new_detail.pl?&uk=UCR132769" target="_blank">View Details</a>	
CATA	CATA405	Azolla filiculoides	Mark L. Hoefs, A. Douglas Propst & Robert F. Thorne		532		2442303	2442303	12 Sep 1974	Los Angeles	22 m	Santa Catalina Island: Cottonwood Stream, above bridge at main road	33.3710848044202	-118.474003642766	NAD83	<a href="https://ucjeps.berkeley.edu/cgi-bin/new_detail.pl?&uk=CATA405" target="_blank">View Details</a>	
HSC	HSC60017	Azolla filiculoides	M. A. Baker		566		2443649	2443649	20 May 1978	Humboldt		W side of the Klamath River along Hwy. 96	41.186500	-123.701000	WGS84	<a href="https://ucjeps.berkeley.edu/cgi-bin/new_detail.pl?&uk=HSC60017" target="_blank">View Details</a>	
SD	SD221479	Azolla filiculoides	Jon P. Rebman, W. Schmidtmann, L. Aerne & V. Marshall		22311		2455797	2455797	Aug 23, 2011	San Diego	844 m	Cleveland National Forest: around a large pond in Ritchie Creek just north of Eagle Peak Road; east side of pond	33.027310	-116.686030	not recorded	<a href="https://ucjeps.berkeley.edu/cgi-bin/new_detail.pl?&uk=SD221479" target="_blank">View Details</a>	
CAS-BOT-BC	CAS-BOT-BC66226	Azolla filiculoides	Robert F. Thorne; John Dourley; Selwyn Everist		41223		2441168	2441168	4 August 1971	Mono	2124 m	Inyo National Forest: c. 1/2 mi. above Hot Springs in Hot Creek	37.667900	-118.830200		<a href="https://ucjeps.berkeley.edu/cgi-bin/new_detail.pl?&uk=CAS-BOT-BC66226" target="_blank">View Details</a>	
SD	SD185052	Azolla filiculoides	Andrew C. Sanders		31776		2453651	2453651	Oct 07, 2005	San Diego		Buena Vista Lagoon Ecological Reserve, Oceanside, NW side of lagoon near Audubon Nature Center at Hill St./Carlsbad Blvd.	33.169170	-117.356670	WGS84	<a href="https://ucjeps.berkeley.edu/cgi-bin/new_detail.pl?&uk=SD185052" target="_blank">View Details</a>	
CAS-BOT-BC	CAS-BOT-BC66205	Azolla filiculoides	Clare B. Hardham		2747		2436156	2436156	11-13-57	San Luis Obispo		Santa Rita Creek	35.536604	-120.752850	GeoLocate	<a href="https://ucjeps.berkeley.edu/cgi-bin/new_detail.pl?&uk=CAS-BOT-BC66205" target="_blank">View Details</a>	
RSA	RSA216663	Azolla microphylla	Ernest C. Twisselmann		16499		2440713	2440713	1970-05-06	Kern	1005 m	Sierra Nevada: Canebrake Creek at the Chimney Creek Road Crossing.	35.749811	-118.112544	WGS84	<a href="https://ucjeps.berkeley.edu/cgi-bin/new_detail.pl?&uk=RSA216663" target="_blank">View Details</a>	
UCR	UCR171760	Azolla filiculoides	Margaret R. Mulligan, Joe Barth		1284		2453578	2453578	2005-Jul-26	San Diego	112 m	McGinty Mountain Ecological Reserve (California Fish & Game). SE of city El Cajon. SE of intersection of Willow Glen Dr and Hillsdale Rd, in bed of Sweetwater River. San Diego Atlas Square R14	32.755140	-116.898530	not recorded	<a href="https://ucjeps.berkeley.edu/cgi-bin/new_detail.pl?&uk=UCR171760" target="_blank">View Details</a>	
UCR	UCR207787	Azolla filiculoides	O. F. Clarke	s.n.			2453241	2453241	2004-Aug-23	Orange	91 m	Santa Ana River Valley, Yorba Linda, Yorba Regional Park, Santa Ana River bank near intersection of E. La Palma Ave. and Fairmont Blvd.	33.864440	-117.773890	not recorded	<a href="https://ucjeps.berkeley.edu/cgi-bin/new_detail.pl?&uk=UCR207787" target="_blank">View Details</a>	
JEPS	JEPS89882	Azolla microphylla	Dean Wm. Taylor with Glenn L. Clifton		13220		2448858	2448858	Aug 23 1992	Plumas	1112 m	at bridge of Hwy. 207 ca. 1.3 mi. w. &lt;Cresent&gt; Mills (Indian Creek); Freather R. Watershed, Indian Creek	40.084100	-120.916800	WGS84	<a href="https://ucjeps.berkeley.edu/cgi-bin/new_detail.pl?&uk=JEPS89882" target="_blank">View Details</a>	
RSA	RSA618983	Azolla filiculoides	LeRoy Gross		69		2451077	2451077	1998-09-20	Los Angeles	365 m	Southern base San Gabriel Mtns.: Tujunga Ponds. West of 210 freeway in big Tujunga wash, city of Sunland	34.268468	-118.340982	WGS84	<a href="https://ucjeps.berkeley.edu/cgi-bin/new_detail.pl?&uk=RSA618983" target="_blank">View Details</a>	
SBBG	SBBG31306	Azolla filiculoides	R. F. Thorne				2439383	2439383	14-Sep-1966	Los Angeles	53 m	lower Middle Ranch Cyn, ca. 0.75 mi above Ben Weston Beach	33.364600	-118.466100		<a href="https://ucjeps.berkeley.edu/cgi-bin/new_detail.pl?&uk=SBBG31306" target="_blank">View Details</a>	
UCR	UCR277758	Azolla filiculoides	Mitch Provance		17040		2455772	2455772	2011-Jul-29	Riverside	244 m	Santa Ana River Valley, Santa Ana River Wash, area between Market St. and the 60 Freeway	34.005280	-117.380830	not recorded	<a href="https://ucjeps.berkeley.edu/cgi-bin/new_detail.pl?&uk=UCR277758" target="_blank">View Details</a>	
RSA	RSA0064081	Azolla filiculoides	LeRoy Gross, Loraine Washburn		7308		2457143	2457143	2015-04-30	Ventura	193m	Vulcan Property; End of Torrey Road/Main street, south of Highway 126, and Piru. Surveyed up stream.	34.398090	-118.794980	not recorded	<a href="https://ucjeps.berkeley.edu/cgi-bin/new_detail.pl?&uk=RSA0064081" target="_blank">View Details</a>	
UCSB	UCSB38544	Azolla filiculoides	Lampl, Diane				2444728	2444728	1981-05-03	Santa Barbara	228 m	Approximately 2/3 mile southeast of Rancho San Fernando Rey along extreme southeast edge of Lake Cachuma, in an area 200 yards either side of drainage of unnamed creek between dirt road and water's edge on 4/26/1981	34.558100	-119.893800	NAD83	<a href="https://ucjeps.berkeley.edu/cgi-bin/new_detail.pl?&uk=UCSB38544" target="_blank">View Details</a>	
RSA	RSA557315	Azolla filiculoides	Julie Greene, S. D. Boyd, Dave Bramlet, Hilda Flores, Helga Ochoterana		1418		2449178	2449178	1993-07-09	Riverside	433m	San Jacinto Wildlife Area: from the edge of drying flood area.	33.850000	-117.133333		<a href="https://ucjeps.berkeley.edu/cgi-bin/new_detail.pl?&uk=RSA557315" target="_blank">View Details</a>	
CAS-BOT-BC	CAS-BOT-BC68335	Azolla filiculoides	J. H. Thomas		3361		2434543	2434543	June 14, 1953	Santa Cruz	152 m	Camp Evers	37.041667	-122.028333	not recorded	<a href="https://ucjeps.berkeley.edu/cgi-bin/new_detail.pl?&uk=CAS-BOT-BC68335" target="_blank">View Details</a>	
IRVC	IRVC29728	Azolla filiculoides	Mark A. Elvin, Barry S. Nerhus		5240		2454044	2454044	Nov 4 2006	Orange	1 m	Huntington Beach; 1.5 km SW of Wintersburg, SW of jct Slater and Goldenwest; Shipley Nature Center. Southern Coastal	33.7031944444445	-118.007194444444		<a href="https://ucjeps.berkeley.edu/cgi-bin/new_detail.pl?&uk=IRVC29728" target="_blank">View Details</a>	
JEPS	JEPS117723	Azolla microphylla	Lowell Ahart, John Dittes		16955		2455408	2455408	07 30 2010	Siskiyou	716 m	Along the west edge of the Shasta River, about 120 yards northwest of the East Louie Road Bridge, Shasta Big Springs Ranch, 1.6 miles (air) southwest of Big Springs Lake, 4.6 miles (air) northwest of Dwinnel Dam, 5.7 miles (air) southeast of Grenada	41.590830	-122.438330	not recorded	<a href="https://ucjeps.berkeley.edu/cgi-bin/new_detail.pl?&uk=JEPS117723" target="_blank">View Details</a>	
RSA	RSA731721	Azolla filiculoides	Jeannie Gregory, Karen Rich		2109		2454169	2454169	2007-03-09	San Diego	494m	Ramona; Mount Gower Open Space Preserve; at dead end of Gunn Stage Rd ca 2 mi. N of intersection with San Vicente Rd.	33.019400	-116.793900	WGS84	<a href="https://ucjeps.berkeley.edu/cgi-bin/new_detail.pl?&uk=RSA731721" target="_blank">View Details</a>	
JEPS	JEPS116119	Azolla filiculoides	Lowell Ahart		16412		2455113	2455113	10 08 2009	Butte	19 m	In a deep large ditch, on the east side of the road, about 20 yards east of Parking Lot 13, Gray Lodge Waterfowl Management Area, about 7 miles (air) southwest of Gridley	39.308887	-121.837230	not recorded	<a href="https://ucjeps.berkeley.edu/cgi-bin/new_detail.pl?&uk=JEPS116119" target="_blank">View Details</a>	
RSA	RSA195425	Azolla filiculoides	John Thomas		3649		2434675	2434675	1953-10-24	Santa Cruz		Davenport Landing	37.023333	-122.215000	not recorded	<a href="https://ucjeps.berkeley.edu/cgi-bin/new_detail.pl?&uk=RSA195425" target="_blank">View Details</a>	
CAS-BOT-BC	CAS-BOT-BC68374	Azolla filiculoides	John Thomas Howell		31805		2435712	2435712	Aug. 26, 1956.	San Francisco		San Francisco - Pine Lake	37.735800	-122.487800	WGS84	<a href="https://ucjeps.berkeley.edu/cgi-bin/new_detail.pl?&uk=CAS-BOT-BC68374" target="_blank">View Details</a>	
SD	SD194676	Azolla filiculoides	Jeremy Buegge		1419		2453953	2453953	Aug 05, 2006	San Diego	54 m	Escondido, San Dieguito River, ca. 500m west of Lake Hodges dam and 100m south of Del Dios Hwy	33.041700	-117.131700	not recorded	<a href="https://ucjeps.berkeley.edu/cgi-bin/new_detail.pl?&uk=SD194676" target="_blank">View Details</a>	
CHSC	CHSC8761	Azolla filiculoides	S. Chulasmai		2		2439210	2439210	1966-03-25	Butte		Highway 99 E (3 miles south of Chico) Dradger pond.	39.700833	-121.784722	NAD 1983	<a href="https://ucjeps.berkeley.edu/cgi-bin/new_detail.pl?&uk=CHSC8761" target="_blank">View Details</a>	
CHSC	CHSC76826	Azolla filiculoides	Lowell Ahart		8321		2451544	2451544	1999-12-31	Butte	32 m	Along the east side of the Sacramento River, northwest of Parrott Landing, about 1 mile southeast of Ord Ferry, about 2 miles southeast of Ordbend, about 12 miles (air) southwest of Chico.	39.619167	-121.979444	NAD 1983	<a href="https://ucjeps.berkeley.edu/cgi-bin/new_detail.pl?&uk=CHSC76826" target="_blank">View Details</a>	
UC	UC1738569	Azolla filiculoides	E. Neese, E. Painter	HL	708		2449526	2449526	Jun 22 1994	Monterey	300 m	Fort Hunter Liggett (Cantonment), both sides of Nacimiento-Fergusson Road bridge over San Antonio River, ca. 1.3 air km NNW of Oro Fino Canyon, ca. 4 air km NW of Lower Stony Reservoir	35.983015	-121.237964		<a href="https://ucjeps.berkeley.edu/cgi-bin/new_detail.pl?&uk=UC1738569" target="_blank">View Details</a>	
CAS-BOT-BC	CAS-BOT-BC376136	Azolla filiculoides	Eve Laeger		553		2451898	2451898	19 Dec 2000	Kern	807 m	Western slope of the Southern Sierra Nevada. Kern Audubon Preserve. Off of Sierra Way north slope of the South Fork Kern River	35.673611	-118.326389	not recorded	<a href="https://ucjeps.berkeley.edu/cgi-bin/new_detail.pl?&uk=CAS-BOT-BC376136" target="_blank">View Details</a>	
SD	SD75731	Azolla filiculoides	D. W. Taylor	T	70	 51	2440742	2440742	Jun 04, 1970	San Luis Obispo		Reservoir Canyon: 900' E, 1700' S, S30, T30S, R13E.	38.039170	-120.943610	not recorded	<a href="https://ucjeps.berkeley.edu/cgi-bin/new_detail.pl?&uk=SD75731" target="_blank">View Details</a>	
UCR	UCR123672	Azolla filiculoides	George K. Helmkamp, Elizabeth Helmkamp		5324		2451468	2451468	1999-Oct-16	Mono	2119 m	Sierra Nevada Mountains, Along Owens River, 0.6 mi NW of Benton's Crossing.	37.721670	-118.793330	not recorded	<a href="https://ucjeps.berkeley.edu/cgi-bin/new_detail.pl?&uk=UCR123672" target="_blank">View Details</a>	
CHSC	CHSC50017	Azolla filiculoides	Lowell Ahart		6409		2447909	2447909	1990-01-17	Butte	301 m	Below the high water line of Lake Oroville, west of the Enterprise Boat Launch Area, about 1/4 mile north-west of the Enterprise Bridge across Lake Oroville.	39.541111	-121.343611	NAD 1983	<a href="https://ucjeps.berkeley.edu/cgi-bin/new_detail.pl?&uk=CHSC50017" target="_blank">View Details</a>	
SBBG	SBBG26221	Azolla filiculoides	E. C. Twisselmann		12734		2439364	2439364	26-Aug-1966	Kern	792 m	Cedar Crk, 0.25 mi below mouth of Lumreau Crk	35.674000	-118.721000		<a href="https://ucjeps.berkeley.edu/cgi-bin/new_detail.pl?&uk=SBBG26221" target="_blank">View Details</a>	
JEPS	JEPS124281	Azolla filiculoides	Lowell Ahart		20652		2457345	2457345	Nov 18, 2015	Butte		About 2 miles southeast of intersection of Palm Avenue and Larkin Road, about 5 miles (air) northeast of Gridley.	39.403194	-121.619194	not recorded	<a href="https://ucjeps.berkeley.edu/cgi-bin/new_detail.pl?&uk=JEPS124281" target="_blank">View Details</a>	
UCSB	UCSB56894	Azolla filiculoides	Ferren, Wayne				2447006	2447006	1987-07-29	Santa Barbara		Shuman Creek estuary, Vandenberg Air Base	34.845000	-120.607000	NAD83	<a href="https://ucjeps.berkeley.edu/cgi-bin/new_detail.pl?&uk=UCSB56894" target="_blank">View Details</a>	
RSA	RSA713587	Azolla filiculoides	A. C. Sanders		20557		2450559	2450559	1997-04-20	Kern	762m	San Emigdio Range: San Emigdio Ranch, along dirt road from San Emigdio Canyon south to Los Lobos Creek	34.948889	-119.214722	not recorded	<a href="https://ucjeps.berkeley.edu/cgi-bin/new_detail.pl?&uk=RSA713587" target="_blank">View Details</a>	
UCR	UCR127646	Azolla filiculoides	A. C. Sanders, Mark Elvin, Dave Fleitner		27131		2452858	2452858	2003-Aug-6	Los Angeles	280 m	NE end of Santa Susana Mtns., Newhall Ranch, Santa Clara Riverbed, below confluence of Castaic Creek, east of Del Valle	34.418610	-118.636940	not recorded	<a href="https://ucjeps.berkeley.edu/cgi-bin/new_detail.pl?&uk=UCR127646" target="_blank">View Details</a>	
RSA	RSA192262	Azolla filiculoides	Earl W. Lathrop		5609		2438850	2438850	1965-03-30	Riverside		12 miles west of Murrieta. Tenaja Range	33.512500	-117.326100	WGS84	<a href="https://ucjeps.berkeley.edu/cgi-bin/new_detail.pl?&uk=RSA192262" target="_blank">View Details</a>	
CHSC	CHSC108318	Azolla microphylla	Lowell Ahart		17633		2455791	2455791	2011-08-17	Butte	249 m	On the west edge of the pond, on the east side of the trail and dam, at the old homestead, about 100 yards south of Ten Mile House Road, about 5/8 mile (air) west of Highway 32, about 9 miles (air) northeast of Chico.	39.801944	-121.726944	NULL	<a href="https://ucjeps.berkeley.edu/cgi-bin/new_detail.pl?&uk=CHSC108318" target="_blank">View Details</a>	
CAS-BOT-BC	CAS-BOT-BC66213	Azolla filiculoides	D. E. Breedlove		4119		2437884	2437884	Aug. 7, 1962	Santa Barbara		near mouth of Santa Maria River, 2 miles west of Guadalupe	34.959900	-120.636800	Terrain Nav. v. 8.7 (copied from DS500936)	<a href="https://ucjeps.berkeley.edu/cgi-bin/new_detail.pl?&uk=CAS-BOT-BC66213" target="_blank">View Details</a>	
JEPS	JEPS127249	Azolla microphylla	Lowell Ahart		21342		2457636	2457636	Sep 4, 2016	Butte		Peter Ahart Ranch, about 2 miles north and 1/2 mile east of Honcut, about 12 miles (air) south of Oroville.	39.360806	-121.529444	not recorded	<a href="https://ucjeps.berkeley.edu/cgi-bin/new_detail.pl?&uk=JEPS127249" target="_blank">View Details</a>	
UCR	UCR153997	Azolla filiculoides	Jon P. Rebman, M. Mayer		7506		2452186	2452186	2001-Oct-3	San Diego	20 m	Mission Valley Preserve: along the San Diego River from Sefton Park to the Interstate 5 bridge. Square: R8	32.761670	-117.191670	not recorded	<a href="https://ucjeps.berkeley.edu/cgi-bin/new_detail.pl?&uk=UCR153997" target="_blank">View Details</a>	
CHSC	CHSC50637	Azolla filiculoides	Lowell Ahart		6473		2448032	2448032	1990-05-20	Butte	30 m	About 1/4 mile south of the Feather River, about 4/10 mile west of Pacific Heights Road, about 4 1/2 miles south-west of Oroville.	39.450556	-121.614167	NAD 1983	<a href="https://ucjeps.berkeley.edu/cgi-bin/new_detail.pl?&uk=CHSC50637" target="_blank">View Details</a>	
CAS-BOT-BC	CAS-BOT-BC66247	Azolla mexicana	Ernest C. Twisselmann		6632		2437578	2437578	October 5, 1961	Kern	152 m	Kern River at Hart Memorial Park	35.450879	-118.910321	Google Earth (copied from UCD92629)	<a href="https://ucjeps.berkeley.edu/cgi-bin/new_detail.pl?&uk=CAS-BOT-BC66247" target="_blank">View Details</a>	
CHSC	CHSC103171	Azolla microphylla	Lowell Ahart		16558		2455155	2455155	2009-11-19	Butte	242 m	About 40 yards southwest of table, about 100 yards south of Ten Mile House Road, Upper Bidwell Park, about 1/2 mile (air) west of Highway 32, about 10 miles northest of Chico.	39.802222	-121.726944	NULL	<a href="https://ucjeps.berkeley.edu/cgi-bin/new_detail.pl?&uk=CHSC103171" target="_blank">View Details</a>	
UC	UC2042150	Azolla filiculoides	Nick Jensen with Neal Kramer		2492		2456908	2456908	Sep 7, 2014	Kern		Tejon Ranch. Along Lower Tejon Creek.	35.085230	-118.797660	not recorded	<a href="https://ucjeps.berkeley.edu/cgi-bin/new_detail.pl?&uk=UC2042150" target="_blank">View Details</a>	
SBBG	SBBG45311	Azolla filiculoides	M. R. Benedict				2440765	2440765	27-Jun-1970	Los Angeles		under wooden bridge, lower Cape Cyn	33.360714	-118.417854	WGS84	<a href="https://ucjeps.berkeley.edu/cgi-bin/new_detail.pl?&uk=SBBG45311" target="_blank">View Details</a>	
UCR	UCR146486	Azolla filiculoides	Scott D. White, Angelia Carey		10762		2453265	2453265	2004-Sep-16	Riverside	567 m	San Jacinto Mountains foothills, Indian Creek; (Lake Fulmor)	33.775000	-116.850000	not recorded	<a href="https://ucjeps.berkeley.edu/cgi-bin/new_detail.pl?&uk=UCR146486" target="_blank">View Details</a>	
CHSC	CHSC35273	Azolla microphylla	M. S. Taylor		4166		2444822	2444822	1981-08-05	Plumas	1066 m	In Indian Valley, s side of Hwy 206, 1.5 mi e of its jct with Hwy 89 just n of Cresent Mills.	40.104444	-120.879722	NAD 1983	<a href="https://ucjeps.berkeley.edu/cgi-bin/new_detail.pl?&uk=CHSC35273" target="_blank">View Details</a>	
RSA	RSA786142	Azolla mexicana	Holly C. Forbes	FS	570		2446916	2446916	1987-04-30	Inyo	1274m	Fish Slough: a desert wetland system 4.5 mi. north of Bishop at the northern end of Owens Valley; study site includes 14 sq. mi. along a 7 mi. drainage axis	37.491667	-118.383333	not recorded	<a href="https://ucjeps.berkeley.edu/cgi-bin/new_detail.pl?&uk=RSA786142" target="_blank">View Details</a>	
JROH	JROH1	Azolla	John Hunter Thomas		20669		2444760	2444760	6/4/1981	San Mateo	81 m	Jasper Ridge Biological Preserve, Stanford University. Near low flow crossing of San Francisquito Creek	37.410717	-122.237835	WGS84	<a href="https://ucjeps.berkeley.edu/cgi-bin/new_detail.pl?&uk=JROH1" target="_blank">View Details</a>	
CAS-BOT-BC	CAS-BOT-BC53686	Azolla filiculoides	Ernest C. Twisselmann		8431		2438192	2438192	June 11, 1963.	Kern	1188 m	Tehachapi-Kernville Region - Erskine Creek, Piute Mountains	35.611390	-118.489720	WGS84	<a href="https://ucjeps.berkeley.edu/cgi-bin/new_detail.pl?&uk=CAS-BOT-BC53686" target="_blank">View Details</a>	
CATA	CATA313	Azolla filiculoides	Mark L. Hoefs		339		2441839	2441839	5 Jun 1973	Los Angeles	22 m	Santa Catalina Island: Lower Cottonwood Canyon, in stream bed by main road at bridge	33.3765396103776	-118.47412792121	NAD83	<a href="https://ucjeps.berkeley.edu/cgi-bin/new_detail.pl?&uk=CATA313" target="_blank">View Details</a>	
UCR	UCR261395	Azolla filiculoides	Joseph Cahill, Erik Jordan	1110-	01		2455515	2455515	2010-Nov-14	Ventura	98 m	South Coast Range, Old Creek Road off Hwy 33 about 1 mile south of Oak View	34.382500	-119.302780	not recorded	<a href="https://ucjeps.berkeley.edu/cgi-bin/new_detail.pl?&uk=UCR261395" target="_blank">View Details</a>	
CDA	CDA34273	Azolla filiculoides	L. Ahart		16412		2455113	2455113	8 Oct 2009	Butte		About 20 yards east of Parking Lot 13, Gray Lodge Waterfowl Management Area. Approximately, 7 miles (air) southwest of Gridley.	39.308861	-121.837139	not recorded	<a href="https://ucjeps.berkeley.edu/cgi-bin/new_detail.pl?&uk=CDA34273" target="_blank">View Details</a>	
SFV	SFV7092	Azolla filiculoides	K. A. Wilson		1443		2442281	2442281	Aug 21 1974	Los Angeles	245 m	Santa Monica Mountains Malibu Creek. Kanan Road and Triunfo Canyon Road intersection.	34.12	-118.79	NAD27	<a href="https://ucjeps.berkeley.edu/cgi-bin/new_detail.pl?&uk=SFV7092" target="_blank">View Details</a>	
SD	SD106429	Azolla filiculoides	Wayne P. Armstrong				2444421	2444421	Jun 30, 1980	San Diego	152 m	Lake Hodges, east of Interstate 15	33.054440	-117.062500	WGS84	<a href="https://ucjeps.berkeley.edu/cgi-bin/new_detail.pl?&uk=SD106429" target="_blank">View Details</a>	
GH	GH376898	Azolla mexicana	Steven Talley				2443388	2443418	1977-09-01 - 1977-10-01	Unknown		West end of Sherman Island	38.087550	-121.764560	WGS84	<a href="https://ucjeps.berkeley.edu/cgi-bin/new_detail.pl?&uk=GH376898" target="_blank">View Details</a>	
UC	UC2031966	Azolla microphylla	A. C. Sanders with P. J. MacKay, D. L. Sanders		25612		2452581	2452581	2 Nov 2002	San Bernardino		Southern Mojave Desert: Lower Narrow of the Mojave River at National Trails Highway bridge south of Oro Grande	34.573889	-117.321667	not recorded	<a href="https://ucjeps.berkeley.edu/cgi-bin/new_detail.pl?&uk=UC2031966" target="_blank">View Details</a>	
RSA	RSA768925	Azolla microphylla	Lowell A. Ahart, John Dittes		16955		2455408	2455408	2010-07-30	Siskiyou	717m	Edge of the Shasta River, about 50-100 yards from the East Louie Road Bridge, Shasta Big Springs Ranch, 1.6 air miles southwest of Big Springs Lake, 4.6 air miles northwest of Dwinnel Dam, 5.7 air miles southeast of Grenada.	41.590706	-122.438361	not recorded	<a href="https://ucjeps.berkeley.edu/cgi-bin/new_detail.pl?&uk=RSA768925" target="_blank">View Details</a>	
CAS-BOT-BC	CAS-BOT-BC68342	Azolla filiculoides	Peter Rubtzoff		4133		2436733	2436733	June 13, 1959	Sonoma		Willow Creek Marsh	38.437220	-123.015280	WGS84	<a href="https://ucjeps.berkeley.edu/cgi-bin/new_detail.pl?&uk=CAS-BOT-BC68342" target="_blank">View Details</a>	
CAS-BOT-BC	CAS-BOT-BC66243	Azolla mexicana	John Thomas Howell		36859		2437566	2437566	Sept. 23, 1961	Plumas	1082 m	Indian Valley	40.108424	-120.883347	Geolocate (copied from CAS437952)	<a href="https://ucjeps.berkeley.edu/cgi-bin/new_detail.pl?&uk=CAS-BOT-BC66243" target="_blank">View Details</a>	
RSA	RSA709377	Azolla microphylla	A. C. Sanders, Mark Elvin		25227		2452446	2452446	2002-06-20	Los Angeles	290m	NE end of Santa Susana Mtns.: Santa Clara River bottom at confluence with Castaic Creek, near and above bench mark 926, at foot of bluffs on south side of river.	34.420000	-118.626667	not recorded	<a href="https://ucjeps.berkeley.edu/cgi-bin/new_detail.pl?&uk=RSA709377" target="_blank">View Details</a>	
CAS-BOT-BC	CAS-BOT-BC68344	Azolla filiculoides	Peter Rubtzoff		4424		2437084	2437084	May 29, 1960	Sonoma		Laguna de Santa Rosa near Trenton (south of Woolsey Road).	38.469400	-122.841000	WGS84	<a href="https://ucjeps.berkeley.edu/cgi-bin/new_detail.pl?&uk=CAS-BOT-BC68344" target="_blank">View Details</a>	
CDA	CDA33712	Azolla filiculoides	Patrick Akers	s.n.			2455615	2455615	22 Feb 2011	Sonoma	0 m	Sonoma. 2299 Sobre Vista Road	38.325361	-122.523083	not recorded	<a href="https://ucjeps.berkeley.edu/cgi-bin/new_detail.pl?&uk=CDA33712" target="_blank">View Details</a>	
CHSC	CHSC59166	Azolla microphylla	Vernon H. Oswald		5218		2448887	2448887	1992-09-21	Butte	30 m	SE corner of Llano Seco, in a ditch crossing Seven Mile Lane ca. 0.25 mi N of Nelson West Rd.	39.548333	-121.908333	NAD 1983	<a href="https://ucjeps.berkeley.edu/cgi-bin/new_detail.pl?&uk=CHSC59166" target="_blank">View Details</a>	
SD	SD254556	Azolla filiculoides	Ann Howald, Christina Freeman		3411		2457024	2457024	Jan 01, 2015	Sonoma	362 m	Inner North Coast Ranges: Annadel State Park, Ledson Marsh, northwest corner, south of Marsh Trail (Kenwood 7.5'Q)	38.411110	-122.601670	not recorded	<a href="https://ucjeps.berkeley.edu/cgi-bin/new_detail.pl?&uk=SD254556" target="_blank">View Details</a>	
RSA	RSA0040523	Azolla filiculoides	Nick Jensen, Neal Kramer		2492		2456908	2456908	2014-09-07	Kern	244m	Along Lower Tejon Creek	35.085230	-118.797660	not recorded	<a href="https://ucjeps.berkeley.edu/cgi-bin/new_detail.pl?&uk=RSA0040523" target="_blank">View Details</a>	
CHSC	CHSC40397	Azolla filiculoides	Lowell Ahart		4850		2446149	2446149	1985-03-24	Butte	100 m	South of Highway 70, at the intersection of Highway 70 and 191.	39.601667	-121.618611	NULL	<a href="https://ucjeps.berkeley.edu/cgi-bin/new_detail.pl?&uk=CHSC40397" target="_blank">View Details</a>	
CDA	CDA13816	Azolla mexicana	G. F. Hrusa, T. D. Wilfred		13544		2450332	2450332	5 September 1996	Glenn		Butte Basin; Occasional floating or on mud. Wet bank of Parrot Ditch, at intersection of Seven Mile Lane and Nelson Rd. approx. 3 mi. W of Nelson. Short internodes & lower leaf lobe &lt;&lt; than upper suggest this. Sterile.	39.550000	-121.900000	not recorded	<a href="https://ucjeps.berkeley.edu/cgi-bin/new_detail.pl?&uk=CDA13816" target="_blank">View Details</a>	
CHSC	CHSC44629	Azolla filiculoides	Vernon Oswald		1162		2445448	2445448	1983-04-23	Glenn	146 m	Big Tree Nature Trail on Black Butte Rd. near the w end of the Stony Creek arm of Black Butte Lake.	39.736111	-122.396389	NAD 1983	<a href="https://ucjeps.berkeley.edu/cgi-bin/new_detail.pl?&uk=CHSC44629" target="_blank">View Details</a>	
RSA	RSA726847	Azolla filiculoides	Lowell A. Ahart		14260		2454289	2454289	2007-07-07	Colusa	20m	About 1.25 miles east of River Road, about 17 miles west of Gridley.	39.343444	-121.975833	not recorded	<a href="https://ucjeps.berkeley.edu/cgi-bin/new_detail.pl?&uk=RSA726847" target="_blank">View Details</a>	
RSA	RSA52871	Azolla microphylla	R. Weatherby		1484		2433491	2433491	1950-07-28	Plumas	1067m	Indian Creek, on road to Taylorsville.	40.047894	-120.771909	WGS84	<a href="https://ucjeps.berkeley.edu/cgi-bin/new_detail.pl?&uk=RSA52871" target="_blank">View Details</a>	
UCR	UCR95226	Azolla filiculoides	D. L. Banks, E. H. Banks		946		2450206	2450206	1996-May-2	Riverside	524 m	Agua Tibia Mountains, NW Palomar Mountains; NW foothills of Dorland Mtn, S end of Los Caballos Road, University of California-Emerson Oaks Reserve, at the Emerson Cottage	33.466670	-117.041670	not recorded	<a href="https://ucjeps.berkeley.edu/cgi-bin/new_detail.pl?&uk=UCR95226" target="_blank">View Details</a>	
SD	SD240473	Azolla filiculoides	Jon P. Rebman, W. Schmidtmann & G. Kenney		28329		2456786	2456786	May 08, 2014	San Diego	35 m	Camp Pendleton: Training Area India: eastern portion of Base; along the Santa Margarita River just southwest of the De Luz Road crossing	33.361190	-117.322490	not recorded	<a href="https://ucjeps.berkeley.edu/cgi-bin/new_detail.pl?&uk=SD240473" target="_blank">View Details</a>	
SD	SD176157	Azolla filiculoides	Margaret R. Mulligan, Joe Barth		1284		2453578	2453578	Jul 26, 2005	San Diego	111 m	McGinty Mountain Ecological Reserve (California Fish & Game). SE of city El Cajon. SE of intersection of Willow Glen Dr and Hillsdale Rd, in bed of Sweetwater River.	32.755150	-116.898540	not recorded	<a href="https://ucjeps.berkeley.edu/cgi-bin/new_detail.pl?&uk=SD176157" target="_blank">View Details</a>	
CHSC	CHSC96926	Azolla filiculoides	Lowell Ahart		14260		2454289	2454289	2007-07-07	Colusa	20 m	On north side of the Gridley Colusa Highway, about 1 1/4 miles east of River Road, about 17 miles west of Gridley.	39.343333	-121.975833	NULL	<a href="https://ucjeps.berkeley.edu/cgi-bin/new_detail.pl?&uk=CHSC96926" target="_blank">View Details</a>	
SBBG	SBBG111835	Azolla filiculoides	E. Neese, E. Painter	HL	708		2449526	2449526	22-Jun-1994	Monterey	300m	San Antonio River, near Nacimiento-Fergusson Rd bridge, ca. 1.3 km NNW of Oro Fino Cyn; Ft Hunter Liggett	35.984400	-121.238000		<a href="https://ucjeps.berkeley.edu/cgi-bin/new_detail.pl?&uk=SBBG111835" target="_blank">View Details</a>	
UCR	UCR261389	Azolla filiculoides	R. G. Swinney		13384		2455377	2455377	2010-Jun-29	Los Angeles	308 m	San Gabriel Mountains/Verdugo Mountains, Hansen Food Control Basin, confluence of Big Tujunga Wash/stream with Hansen Lake	34.268330	-118.379720	not recorded	<a href="https://ucjeps.berkeley.edu/cgi-bin/new_detail.pl?&uk=UCR261389" target="_blank">View Details</a>	
CAS-BOT-BC	CAS-BOT-BC66249	Azolla mexicana	Ernest C. Twisselmann		16271		2440497	2440497	October 2, 1969	Tulare	121 m	Deer Creek, 8.4 miles east of Pixley	35.964737	-119.142190	Terrain Navigator 1:24,000 (copied from JEPS60773)	<a href="https://ucjeps.berkeley.edu/cgi-bin/new_detail.pl?&uk=CAS-BOT-BC66249" target="_blank">View Details</a>	
CAS-BOT-BC	CAS-BOT-BC66253	Azolla mexicana	Robert J. Weatherby		1484		2433491	2433491	July 28, 1950	Plumas	1066 m	at edge of Indian Creek, on road to Taylorsville	40.044748	-120.764623	Geolocate	<a href="https://ucjeps.berkeley.edu/cgi-bin/new_detail.pl?&uk=CAS-BOT-BC66253" target="_blank">View Details</a>	
UCR	UCR132519	Azolla	A. C. Sanders		20557		2450559	2450559	1997-Apr-20	Kern	793 m	San Emigdio Range, San Emigdio Ranch, along dirt road from San Emigdio Canyon south to Los Lobos Creek	34.948890	-119.214720	not recorded	<a href="https://ucjeps.berkeley.edu/cgi-bin/new_detail.pl?&uk=UCR132519" target="_blank">View Details</a>	
SD	SD227667	Azolla mexicana	A. C. Sanders, P. MacKay & C. L. Sanders		17898		2449992	2449992	Oct 01, 1995	San Bernardino	950 m	San Bernardina Mtns. / southern Mojave Desert: Dry bed of the Mojave River just above the Mojave River Forks Dan, W of Arrowhead Lake Road from Hesperia	34.350000	-117.258330	not recorded	<a href="https://ucjeps.berkeley.edu/cgi-bin/new_detail.pl?&uk=SD227667" target="_blank">View Details</a>	
RSA	RSA594042	Azolla filiculoides	Darin L. Banks, Elizabeth Hedge Banks		946		2450206	2450206	1996-05-02	Riverside	524m	NW Palomar Mountains; Agua Tibia Mountains; NW foothills of Dorland Mtn.; S end of Los Caballos Road, University of California-Emerson Oaks Reserve, at the Emerson Cottage.	33.466700	-117.041900	WGS84	<a href="https://ucjeps.berkeley.edu/cgi-bin/new_detail.pl?&uk=RSA594042" target="_blank">View Details</a>	
CAS-BOT-BC	CAS-BOT-BC53688	Azolla filiculoides	Ernest C. Twisselmann		12734		2439364	2439364	August 26, 1966.	Kern	792 m	Sierra Nevada, the Greenhorn Range - Cedar Creek, 0.25 mile below the mouth of Lureau Creek	35.686980	-118.691867	Geolocate (copied from CAS644181)	<a href="https://ucjeps.berkeley.edu/cgi-bin/new_detail.pl?&uk=CAS-BOT-BC53688" target="_blank">View Details</a>	
RSA	RSA755573	Azolla filiculoides	R. G. Swinney		9335		2454719	2454719	2008-09-09	Los Angeles	960m	Little Rock Creek, 0.2 mi. north of Little Rock Reservoir	34.487222	-118.021944	not recorded	<a href="https://ucjeps.berkeley.edu/cgi-bin/new_detail.pl?&uk=RSA755573" target="_blank">View Details</a>	
UC	UC1619933	Azolla filiculoides	Barbara Ertter, Brad Olson		10849		2448528	2448528	Sep 28 1991	Contra Costa	97 m	S end San Pablo Reservoir between Orinda and El Sobrante	37.913310	-122.227350	NAD27	<a href="https://ucjeps.berkeley.edu/cgi-bin/new_detail.pl?&uk=UC1619933" target="_blank">View Details</a>	
LA	LA94038	Azolla filiculoides	Lawrence L. Kiefer;		547		2438190	2438190	June 9 1963	Los Angeles	1000 ft	SANTA MONICA MOUNTAINS, Triunfo Canyon, N arm of Malibu Lake, N of bridge (Mulholland Hwy).	34.109606	-118.755309	NAD27	<a href="https://ucjeps.berkeley.edu/cgi-bin/new_detail.pl?&uk=LA94038" target="_blank">View Details</a>	
CHSC	CHSC55817	Azolla microphylla	L. P. Janeway; Jean Witzman, Frances Biles		2184	A	2446958	2446958	1987-06-11	Merced	137 m	Near the edge of Los Banos Cr in Los Banos Valley.	36.955000	-121.025556	NAD 1983	<a href="https://ucjeps.berkeley.edu/cgi-bin/new_detail.pl?&uk=CHSC55817" target="_blank">View Details</a>	
CAS-BOT-BC	CAS-BOT-BC66257	Azolla mexicana	Lowell Ahart	s.n.			2442438	2442438	Jan. 25, 1975	Glenn	30 m	1 mile west of Princeton, Ca.	39.406389	-122.030278	(copied from CHSC46039)	<a href="https://ucjeps.berkeley.edu/cgi-bin/new_detail.pl?&uk=CAS-BOT-BC66257" target="_blank">View Details</a>	
JEPS	JEPS112257	Azolla filiculoides	Andrew G. Murdock		311		2453126	2453126	April 30, 2004	Contra Costa		In Pinole Creek near Pig Sale.	37.963056	-122.175278	not recorded	<a href="https://ucjeps.berkeley.edu/cgi-bin/new_detail.pl?&uk=JEPS112257" target="_blank">View Details</a>	
UCR	UCR236127	Azolla filiculoides	Jim Andre, Glenn L. Clifton		18327		2455709	2455709	2011-May-27	Inyo	1237 m	Owens Valley, along Lubken Road c. 1 mi west of US Hwy 395	36.542430	-118.061970	not recorded	<a href="https://ucjeps.berkeley.edu/cgi-bin/new_detail.pl?&uk=UCR236127" target="_blank">View Details</a>	
SD	SD244256	Azolla filiculoides	Jon P. Rebman, V. Marshall, J. Greene, D. Fosket, & J. Roberts		26798		2456442	2456442	May 29, 2013	San Diego	619 m	Lake Sutherland: northeast of Ramona; east of Lake Sutherland Dam Road; northeast side of the Lake near a creek and east of the dam and spillway	33.119110	-116.776870	not recorded	<a href="https://ucjeps.berkeley.edu/cgi-bin/new_detail.pl?&uk=SD244256" target="_blank">View Details</a>	
JEPS	JEPS111347	Azolla mexicana	R. V. Lansdown				2454218	2454218	Apr 27 2007	Butte		Oroville Wildlife Area, W of Oroville. Complex of deep basins around the car park on the northern margin of the Wildlife Area.	39.466428	-121.659804	WGS84	<a href="https://ucjeps.berkeley.edu/cgi-bin/new_detail.pl?&uk=JEPS111347" target="_blank">View Details</a>	
RSA	RSA151152	Azolla filiculoides	Peter H. Raven		16645		2437553	2437553	1961-09-10	San Bernardino	823m	Along Mojave River just east of Victorville	34.537937	-117.290734	WGS84	<a href="https://ucjeps.berkeley.edu/cgi-bin/new_detail.pl?&uk=RSA151152" target="_blank">View Details</a>	
CHSC	CHSC117707	Azolla filiculoides	Lowell Ahart; John Dittes		21309		2457626	2457626	2016-08-25	Tehama	117 m	Southeast of the parking area, about 200 yards west of the Sacramento River, Anderson River Park, 0.7 miles (air) upstream from Stillwater Creek Confluence 1.8 miles (air) northeast of Balls Ferry Road exit from Interstate 5 in Anderson. Undesignated section of San Buenaventura Land Grant.	40.470833	-122.261667	NULL	<a href="https://ucjeps.berkeley.edu/cgi-bin/new_detail.pl?&uk=CHSC117707" target="_blank">View Details</a>	
SD	SD187295	Azolla filiculoides	Scott D. White, Angelia Carey		10762		2453265	2453265	Sep 16, 2004	Riverside	548 m	San Jacinto Mountain foothills: Indian Creek.	33.775000	-116.850000	not recorded	<a href="https://ucjeps.berkeley.edu/cgi-bin/new_detail.pl?&uk=SD187295" target="_blank">View Details</a>	
CHSC	CHSC81592	Azolla mexicana	Lowell Ahart		9326		2452191	2452191	2001-10-08	Plumas	1066 m	On still waters of Indian Creek, about 400 yards south of Arlington Road, about 200 yards east of Highway 89, about 1 1/2 miles south of Crescent Mills.	40.084167	-120.920278	NAD 1983	<a href="https://ucjeps.berkeley.edu/cgi-bin/new_detail.pl?&uk=CHSC81592" target="_blank">View Details</a>	
RSA	RSA616657	Azolla microphylla	Mary DeDecker		2275		2440425	2440425	1969-07-22	Inyo	1133 m	Owens Valley: Owens River north of Manzanar Road.	36.740800	-118.116000	WGS84	<a href="https://ucjeps.berkeley.edu/cgi-bin/new_detail.pl?&uk=RSA616657" target="_blank">View Details</a>	
CHSC	CHSC8769	Azolla filiculoides	S. Chulasmai		7		2439231	2439231	1966-04-15	Mendocino		Eastman Creek (Arleta Village).	39.698056	-123.333611	NAD 1983	<a href="https://ucjeps.berkeley.edu/cgi-bin/new_detail.pl?&uk=CHSC8769" target="_blank">View Details</a>	
CAS-BOT-BC	CAS-BOT-BC66233	Azolla filiculoides	Ernest C. Twisselmann		14501		2440034	2440034	June 26, 1968	Tulare	1584 m	Chimney Creek 1 mile below Lamont Meadow	35.800985	-118.065650	GeoLocate (copied from CAS596071)	<a href="https://ucjeps.berkeley.edu/cgi-bin/new_detail.pl?&uk=CAS-BOT-BC66233" target="_blank">View Details</a>	
CAS-BOT-BC	CAS-BOT-BC423334	Azolla filiculoides	A. Williams; R. Truitt; K. Martin; D. Morawitz		14412		2456914	2456914	September 13, 2014	Marin		Mount Tamalpais. Marin Municipal Water District lands: Edge of Hidden Lake, off of Stocking Trail.	37.940380	-122.616050	not recorded	<a href="https://ucjeps.berkeley.edu/cgi-bin/new_detail.pl?&uk=CAS-BOT-BC423334" target="_blank">View Details</a>	
CDA	CDA42498	Azolla filiculoides	W. McCans	s.n.			2439637	2439637	26 May 1967	San Diego	0 m	Pepper Reservoir, Ballena, near Ramona.	33.066700	-116.747500	WGS84	<a href="https://ucjeps.berkeley.edu/cgi-bin/new_detail.pl?&uk=CDA42498" target="_blank">View Details</a>	
GH	GH376905	Azolla filiculoides	R. F. Thorne		36659		2439383	2439383	1966-09-14 - 1966-09-14	Unknown	53 m	Santa Catalina Island: lower Middle Ranch Canyon ca. 3/4 mi. above Ben Weston Beach	33.366900	-118.470000	WGS84	<a href="https://ucjeps.berkeley.edu/cgi-bin/new_detail.pl?&uk=GH376905" target="_blank">View Details</a>	
CHSC	CHSC4062	Azolla filiculoides	J. Wheeler		10		2439604	2439604	1967-04-23	Tehama	91 m	On the w side of Paskenta Road.	39.980278	-122.383889	NAD 1983	<a href="https://ucjeps.berkeley.edu/cgi-bin/new_detail.pl?&uk=CHSC4062" target="_blank">View Details</a>	
SD	SD254729	Azolla filiculoides	Susan T Welker				2449266	2449266	Oct 05, 1993	San Diego	868 m	Lake Henshaw area. North west of Vista Irrigation District. Gate #2; west of Hwy 79; south of Linton Rd., (Puerta La Cruz Cons. Camp); north of Warner Springs	33.299840	-116.693250	WGS84	<a href="https://ucjeps.berkeley.edu/cgi-bin/new_detail.pl?&uk=SD254729" target="_blank">View Details</a>	
CHSC	CHSC116268	Azolla filiculoides	Lowell Ahart		20652		2457345	2457345	2015-11-18	Butte	26 m	About one mile south of Palm Avenue, about 2 miles southeast of the intersection of Palm Avenue and Larkin Road, about 5 miles (air) northeast of Gridley.	39.403333	-121.619167	NULL	<a href="https://ucjeps.berkeley.edu/cgi-bin/new_detail.pl?&uk=CHSC116268" target="_blank">View Details</a>	
SD	SD235130	Azolla filiculoides	Jon P. Rebman, W. Schmidtmann & G. Kenney		26450		2456428	2456428	May 15, 2013	San Diego	70 m	Camp Pendleton: west-central portion of Base; Training Area Alpha Three; northwest of Camp Horno and southwest of Basilone Road; in the vicinity of Range 207; along the South Fork of San Onofre Creek	33.385390	-117.501950	not recorded	<a href="https://ucjeps.berkeley.edu/cgi-bin/new_detail.pl?&uk=SD235130" target="_blank">View Details</a>	
CAS-BOT-BC	CAS-BOT-BC68339	Azolla filiculoides	Peter Rubtzoff		5113		2437947	2437947	October 9, 1962	Sonoma		Lower Salmon Creek Marsh	38.358500	-123.047700	WGS84	<a href="https://ucjeps.berkeley.edu/cgi-bin/new_detail.pl?&uk=CAS-BOT-BC68339" target="_blank">View Details</a>	
UC	UC1536056	Azolla filiculoides	Robert F. Thorne and C. W. Tilforth		39622		2441096	2441096	May 24 1971	Madera	609 m	ca. 3 mi se of Coarse Gold; Coarse Gold Highlands DVP	37.230236	-119.661530	not recorded	<a href="https://ucjeps.berkeley.edu/cgi-bin/new_detail.pl?&uk=UC1536056" target="_blank">View Details</a>	
SD	SD167015	Azolla filiculoides	Jon P. Rebman, J. Gregory, J. Rocks, & J. Dewitt		10620		2453228	2453228	Aug 10, 2004	San Diego	284 m	Sycuan Peak Ecological Reserve (California Dept. of Fish & Game): southeast of Dehesa, southwest of Loveland Reservoir; on the lower northeast side of Sycuan Peak, near Sloan Ranch	32.771670	-116.800280	not recorded	<a href="https://ucjeps.berkeley.edu/cgi-bin/new_detail.pl?&uk=SD167015" target="_blank">View Details</a>	
UCR	UCR209966	Azolla filiculoides	R. G. Swinney		9335		2454719	2454719	2008-Sep-9	Los Angeles	960 m	San Gabriel Mtns., Little Rock Creek, 0.2 mi. north of Little Rock Reservoir	34.487220	-118.021940	not recorded	<a href="https://ucjeps.berkeley.edu/cgi-bin/new_detail.pl?&uk=UCR209966" target="_blank">View Details</a>	
JEPS	JEPS126110	Azolla filiculoides	Jake Ruygt		995		2444717	2444717	April 22, 1981	Napa		East of Kaiser Steel, west of Highway 29 (221) Rocktram. Napa 7.5' Qua.	38.257400	-122.280500	not recorded	<a href="https://ucjeps.berkeley.edu/cgi-bin/new_detail.pl?&uk=JEPS126110" target="_blank">View Details</a>	
JEPS	JEPS102443	Azolla microphylla	Lowell Ahart		9326		2452191	2452191	10/8/2001	Plumas	1066 m	On still waters of Indian Creek, about 400 yards south of Arlington Road, about 200 yards east of Highway 89, about 1 1/2 miles south of Crescent Mills.	40.082800	-120.920500	not recorded	<a href="https://ucjeps.berkeley.edu/cgi-bin/new_detail.pl?&uk=JEPS102443" target="_blank">View Details</a>	
SD	SD155377	Azolla filiculoides	Jon P. Rebman, Mike Mayer		7506		2452186	2452186	Oct 03, 2001	San Diego	20 m	Mission Valley Preserve: along the San Diego River from Sefton Park to the Interstate 5 bridge	32.761670	-117.191670	not recorded	<a href="https://ucjeps.berkeley.edu/cgi-bin/new_detail.pl?&uk=SD155377" target="_blank">View Details</a>	
RSA	RSA0089267	Azolla filiculoides	Mark A. Elvin, Michael Brady, Jason Storlie		7633		2456917	2456917	2014-09-16	San Luis Obispo	17m	Central Coast: Guadalupe Dunes, Guadalupe-Nipomo Dunes National Wildlife Refuge, Colorado Pond, ca. 80 m from S Refuge boundary.	34.992583	-120.598944	not recorded	<a href="https://ucjeps.berkeley.edu/cgi-bin/new_detail.pl?&uk=RSA0089267" target="_blank">View Details</a>	
UC	UC1483380	Azolla filiculoides	Robert F. Thorne, D. Propst, and M. Hoefs		45109		2442303	2442303	Sep 12 1974	Los Angeles	106 m	below Rancho Escondido; Santa Catalina Isl., Cottonwood Canyon	33.385857	-118.450920	not recorded	<a href="https://ucjeps.berkeley.edu/cgi-bin/new_detail.pl?&uk=UC1483380" target="_blank">View Details</a>	
SDSU	SDSU14320	Azolla filiculoides	Michelle Perl		13		2452385	2452385	04/20/2002	Riverside	229 m	Santa Margarita Ecological Reserve 1/8 mile east of the junction between Santa Margarita River and Via Tornado Road.	33.456390	-117.170280	not recorded	<a href="https://ucjeps.berkeley.edu/cgi-bin/new_detail.pl?&uk=SDSU14320" target="_blank">View Details</a>	
UC	UC1922449	Azolla filiculoides	Naomi Fraga, Daniel Brock		1336		2453310	2453310	31 Oct 2004	Kern		Sierra Nevada; Southern Sierra Nevada region: THE OWENS PEAK EASTERN WATERSHED. Indian Wells Canyon.	35.684400	-117.983000	not recorded	<a href="https://ucjeps.berkeley.edu/cgi-bin/new_detail.pl?&uk=UC1922449" target="_blank">View Details</a>	
UCR	UCR249735	Azolla filiculoides	Jon P. Rebman, Warren Schmidtmann, G. Kenney		26625		2456434	2456434	2013-May-21	San Diego	25 m	Camp Pedleton, south-central portion of the base; Training Area SMR2, northeast of the intersection of Vandegrift Blvd and Basilone Road, along the southeast side of the Santa Margarita River. Square: E6	33.318310	-117.335610	not recorded	<a href="https://ucjeps.berkeley.edu/cgi-bin/new_detail.pl?&uk=UCR249735" target="_blank">View Details</a>	
JROH	JROH2	Azolla	John Hunter Thomas		20167		2444556	2444556	11/12/1980	San Mateo		Jasper Ridge Biological Preserve, Stanford University; delta	37.407873	-122.245972	WGS84	<a href="https://ucjeps.berkeley.edu/cgi-bin/new_detail.pl?&uk=JROH2" target="_blank">View Details</a>	
SEINET	SEINET3875617	Azolla filiculoides	Lowell Ahart		6473		2448032	2448032	5 20 1990	Butte	30m	About 1/4 mile south of the Feather River, about 4/10 mile west of Pacific Heights Road, about 4 1/2 miles south-west of Oroville.; 0	39.450556	-121.614167	NAD83	<a href="https://ucjeps.berkeley.edu/cgi-bin/new_detail.pl?&uk=SEINET3875617" target="_blank">View Details</a>	
UCR	UCR109011	Azolla filiculoides	L. C. Wheeler	s.n.			2440121	2440121	1968-Sep-21	Los Angeles	530 m	San Gabriel Mtns, Soledad Canyon, Santa Clara River	34.433330	-118.362500	not recorded	<a href="https://ucjeps.berkeley.edu/cgi-bin/new_detail.pl?&uk=UCR109011" target="_blank">View Details</a>	
JEPS	JEPS113773	Azolla filiculoides	Lowell Ahart		14260		2454289	2454289	07 07 2007	Colusa	20 m	On north side of the Gridley Colusa Highway, about 1 1/4 miles east of River Road, about 17 miles west of Gridley	39.343330	-121.975830	not recorded	<a href="https://ucjeps.berkeley.edu/cgi-bin/new_detail.pl?&uk=JEPS113773" target="_blank">View Details</a>	
SBBG	SBBG127952	Azolla filiculoides	M. A. Elvin, G. M. Greenwald		7281		2456533	2456533	28-Aug-2013	San Luis Obispo	17m	"Colorado Pond", 4-Pond Valley, ca. 80 m from S Refuge boundary, Guadalupe-Nipomo Dunes National Wildlife Refuge	34.992580	-120.598940		<a href="https://ucjeps.berkeley.edu/cgi-bin/new_detail.pl?&uk=SBBG127952" target="_blank">View Details</a>	
SD	SD223217	Azolla filiculoides	Jon P. Rebman, W. Schmidtmann, G. Kenney, J. Martin		23241		2456036	2456036	Apr 18, 2012	San Diego	4 m	Camp Pendleton: northeast of Stuart Mesa Road and west of Vandergrift Blvd.; along dirt road on the north side of the Santa Margarita River	33.248850	-117.381670	WGS84	<a href="https://ucjeps.berkeley.edu/cgi-bin/new_detail.pl?&uk=SD223217" target="_blank">View Details</a>	
SDSU	SDSU14014	Azolla filiculoides	Dinna Estrella, M. G. Simpson		29		2452385	2452385	04/20/2002	Riverside	229 m	Santa Margarita Ecological Reserve. River, ca. 1/4 mile east of junction with Via Tornado Road.	33.456390	-117.170280	not recorded	<a href="https://ucjeps.berkeley.edu/cgi-bin/new_detail.pl?&uk=SDSU14014" target="_blank">View Details</a>	
SDSU	SDSU13513	Azolla filiculoides	W. Miller				2441539	2441539	08/09/1972	Riverside		75 m. north of road.	33.467220	-117.153330	not recorded	<a href="https://ucjeps.berkeley.edu/cgi-bin/new_detail.pl?&uk=SDSU13513" target="_blank">View Details</a>	
SD	SD249294	Azolla filiculoides	Richard L. Breisch		817		2455779	2455779	Aug 05, 2011	San Diego	925 m	Lake Morena County Park; along Cottonwood Creek, just south of Corral Canyon Road about 0.75 mile SW of junction with Buckman Springs Road (S-1).	32.707240	-116.505020	not recorded	<a href="https://ucjeps.berkeley.edu/cgi-bin/new_detail.pl?&uk=SD249294" target="_blank">View Details</a>	
UC	UC1562395	Azolla filiculoides	Lowell Ahart		6473		2448032	2448032	May 20 1990	Butte	30 m	ca. 4 1/2 mi sw of Oroville (ca. 1/4 mi s of Feather River, ca. 4/10 mi w of Pacific Heights Rd.)	39.446500	-121.622800	not recorded	<a href="https://ucjeps.berkeley.edu/cgi-bin/new_detail.pl?&uk=UC1562395" target="_blank">View Details</a>	
SBBG	SBBG104902	Azolla filiculoides	M. D. Proctor, E. A. Young	ROB	397		2449090	2449090	12-Apr-1993	San Luis Obispo		1 km SW of Ranch House on Nacimiento Rd; Camp Roberts	35.759000	-120.801000		<a href="https://ucjeps.berkeley.edu/cgi-bin/new_detail.pl?&uk=SBBG104902" target="_blank">View Details</a>	
UCSB	UCSB71633	Azolla filiculoides	Olson, Mark				2449157	2449157	1993-06-18	Santa Barbara		Burton Mesa Project Area; W of Vandenberg Village, nearly a mile SW of Cabrillo High School, S of Hwy 1; Shown as intermittent pond on Lompoc quadrangle	34.704900	-120.487000	NAD83	<a href="https://ucjeps.berkeley.edu/cgi-bin/new_detail.pl?&uk=UCSB71633" target="_blank">View Details</a>	
CAS-BOT-BC	CAS-BOT-BC66244	Azolla mexicana	John Thomas Howell		47402		2440854	2440854	Sept. 24, 1970	Kern	975 m	Havilah Creek at Havilah	35.517780	-118.517780	GEOLocate (copied from CAS815618)	<a href="https://ucjeps.berkeley.edu/cgi-bin/new_detail.pl?&uk=CAS-BOT-BC66244" target="_blank">View Details</a>	
CHSC	CHSC79632	Azolla filiculoides	Lowell Ahart		8718		2451936	2451936	2001-01-26	Butte	21 m	On the east side of the parking lot, on the north side of Rutherford Road, about 1/4 mile west of Pennington Road, Gray Lodge Waterfowl Management Area, about 6 miles (air) southwest of Gridley.	39.318889	-121.804167	NAD 1983	<a href="https://ucjeps.berkeley.edu/cgi-bin/new_detail.pl?&uk=CHSC79632" target="_blank">View Details</a>	
UC	UC1187054	Azolla microphylla	V. F. Hesse		2569	a	2436528	2436528	Nov 20 1958	Santa Cruz	121 m	near Camp Evers	37.042780	-122.023890	not recorded	<a href="https://ucjeps.berkeley.edu/cgi-bin/new_detail.pl?&uk=UC1187054" target="_blank">View Details</a>	
CHSC	CHSC113304	Azolla filiculoides	Lowell Ahart		19338		2456757	2456757	2014-04-09	Butte	19 m	Bottom of a drying deep pond, about 50 yards west of the parking area, west end of West Liberty Road, about one mile (air) south of Colusa Highway, about 7 miles (air) southwest of Gridley.	39.348611	-121.838056	NULL	<a href="https://ucjeps.berkeley.edu/cgi-bin/new_detail.pl?&uk=CHSC113304" target="_blank">View Details</a>	
RSA	RSA728884	Azolla filiculoides	Naomi Fraga, Daniel Brock		1336		2453310	2453310	2004-10-31	Kern	1098m	THE OWENS PEAK EASTERN WATERSHED. Indian Wells Canyon.	35.684400	-117.983000	NAD 27	<a href="https://ucjeps.berkeley.edu/cgi-bin/new_detail.pl?&uk=RSA728884" target="_blank">View Details</a>	
SEINET	SEINET3875614	Azolla filiculoides	Steve Boyd		8693		2450199	2450199	4 25 1996	Los Angeles	914m	Liebre Mountains, Knapp Ranch area at upper end of Castaic Creek drainage in broad alluvial valley at head of Cienega Canyon, south of Liebre Mountain.; 0	34.679160	-118.665270	not recorded	<a href="https://ucjeps.berkeley.edu/cgi-bin/new_detail.pl?&uk=SEINET3875614" target="_blank">View Details</a>	
UCR	UCR101888	Azolla	A. C. Sanders, Steve Boyd, Val Soza		22343		2451133	2451133	1998-Nov-15	Kern	963 m	SE Sierra Nevada Mtns., Indian Wells Canyon, NW of Inyokern, c. 1.2 mi. above the mouth of the canyon at the powerline road	35.673610	-117.894170	not recorded	<a href="https://ucjeps.berkeley.edu/cgi-bin/new_detail.pl?&uk=UCR101888" target="_blank">View Details</a>	
SBBG	SBBG47391	Azolla microphylla	E. C. Twisselmann		6632		2437578	2437578	5-Oct-1961	Kern	152 m	Kern River at Hart Memorial Park	35.452200	-118.911400		<a href="https://ucjeps.berkeley.edu/cgi-bin/new_detail.pl?&uk=SBBG47391" target="_blank">View Details</a>	
RSA	RSA187697	Azolla filiculoides	Robert F. Thorne		36659		2439383	2439383	1966-09-14	Los Angeles	53m	Santa Catalina Island: lower Middle Ranch Canyon, ca. 3/4 mile above Ben Weston Beach	33.366915	-118.470039	WGS84	<a href="https://ucjeps.berkeley.edu/cgi-bin/new_detail.pl?&uk=RSA187697" target="_blank">View Details</a>	
JEPS	JEPS122266	Azolla filiculoides	Lowell Ahart		19338		2456757	2456757	April 9, 2014	Butte		West end of Liberty Road, about one mile (air) south of Colusa Highway, about 7 miles (air) southwest of Gridley.	39.348611	-121.837944	not recorded	<a href="https://ucjeps.berkeley.edu/cgi-bin/new_detail.pl?&uk=JEPS122266" target="_blank">View Details</a>	
UCR	UCR196969	Azolla	Mark A. Elvin, Rick Burgess		5377		2454170	2454170	2007-Mar-10	Ventura	5 m	South Coast, Santa Clara River, c. 1.5 km upstream from Pacific Ocean between Harbor Blvd and 1200 m upstream (east)	34.235310	-119.250690	not recorded	<a href="https://ucjeps.berkeley.edu/cgi-bin/new_detail.pl?&uk=UCR196969" target="_blank">View Details</a>	
UCR	UCR156783	Azolla filiculoides	Jon P. Rebman, J. Gregory, J. Rocks, & J. Dewitt		10620		2453228	2453228	2004-Aug-10	San Diego	285 m	Sycuan Peak Ecological Reserve (California Dept. of Fish & Game): southeast of Dehesa, southwest of Loveland Reservoir; on the lower northeast side of Sycuan Peak, near Sloan Ranch	32.771670	-116.800280	not recorded	<a href="https://ucjeps.berkeley.edu/cgi-bin/new_detail.pl?&uk=UCR156783" target="_blank">View Details</a>	
UCR	UCR264482	Azolla filiculoides	Mark A. Elvin, Michael Brady, Jason Storlie		7633		2456917	2456917	2014-Sep-16	San Luis Obispo	17 m	Central Coastal: Santa Maria River Valley, Guadalupe Dunes, Guadalupe-Nipomo Dunes National Wildlife Refuge, 'Colorado Pond,' c. 80 m from south Refuge boundary	34.992580	-120.598940	not recorded	<a href="https://ucjeps.berkeley.edu/cgi-bin/new_detail.pl?&uk=UCR264482" target="_blank">View Details</a>	
UCD	UCD136018	Azolla filiculoides	Ernest C. Twisselmann		6632		2437578	2437578	5 Oct 1961	Kern	152 m	Kern River at Hart Memorial Park.	35.450900	-118.910300	WGS84	<a href="https://ucjeps.berkeley.edu/cgi-bin/new_detail.pl?&uk=UCD136018" target="_blank">View Details</a>	
RSA	RSA0087325	Azolla filiculoides	R. G. Swinney		13384		2455377	2455377	2010-06-29	Los Angeles	308m	Hansen Food Control Basin, confluence of Big Tujunga Wash/stream with Hansen Lake.	34.268330	-118.379720	not recorded	<a href="https://ucjeps.berkeley.edu/cgi-bin/new_detail.pl?&uk=RSA0087325" target="_blank">View Details</a>	
CAS-BOT-BC	CAS-BOT-BC66242	Azolla mexicana	John Thomas Howell		35164		2437019	2437019	Mar. 25, 1960	Kern	1341 m	Cane Brake Creek, w. side Walker Pass	35.697024	-118.057796	Google Earth	<a href="https://ucjeps.berkeley.edu/cgi-bin/new_detail.pl?&uk=CAS-BOT-BC66242" target="_blank">View Details</a>	
CAS-BOT-BC	CAS-BOT-BC68343	Azolla filiculoides	Peter Rubtzoff		1812		2435228	2435228	April 30, 1955	Sonoma		Forestville Marsh	38.473900	-122.879500	WGS84	<a href="https://ucjeps.berkeley.edu/cgi-bin/new_detail.pl?&uk=CAS-BOT-BC68343" target="_blank">View Details</a>	
UCR	UCR127647	Azolla filiculoides	A. C. Sanders, Mark Elvin		25227		2452446	2452446	2002-Jun-20	Los Angeles	290 m	NE end of Santa Susana Mtns., Santa Clara River bottom at confluence with Castaic Creek, near and above bench mark 926, at foot of bluffs on south side of river	34.420000	-118.626670	not recorded	<a href="https://ucjeps.berkeley.edu/cgi-bin/new_detail.pl?&uk=UCR127647" target="_blank">View Details</a>	
JEPS	JEPS118096	Azolla microphylla	Lowell Ahart		17633		2455791	2455791	08 17 2011	Butte	249 m	On the west edge of the pond, on the east side of the trail and dam, at the old homestead, about 100 yards south of Ten Mile House Road, about 5/8 mile (air) west of Highway 32, about 9 miles (air) northeast of Chico	39.801945	-121.726944	not recorded	<a href="https://ucjeps.berkeley.edu/cgi-bin/new_detail.pl?&uk=JEPS118096" target="_blank">View Details</a>	
CAS-BOT-BC	CAS-BOT-BC66252	Azolla mexicana	Ernest C. Twisselmann		16499		2440713	2440713	May 6, 1970	Kern	1005 m	Canebrake Creek at the Chimney Creek Road crossing	35.749811	-118.112544	GeoLocate (copied from RSA172787)	<a href="https://ucjeps.berkeley.edu/cgi-bin/new_detail.pl?&uk=CAS-BOT-BC66252" target="_blank">View Details</a>	
CAS-BOT-BC	CAS-BOT-BC68353	Azolla filiculoides	Michael R. Benedict	s.n.			2440765	2440765	27 June 1970	Los Angeles		Santa Catalina Island - Lower Cape Canyon, stream under large wooden bridge.	33.360714	-118.417854		<a href="https://ucjeps.berkeley.edu/cgi-bin/new_detail.pl?&uk=CAS-BOT-BC68353" target="_blank">View Details</a>	
CAS-BOT-BC	CAS-BOT-BC66207	Azolla filiculoides	Henry M. Pollard	s.n.			2439004	2439004	August 31, 1965	Ventura		in San Antonio Creek between Arnaz Apple Orchards and Oak View	34.382000	-119.302000	Maptech (copied from SBBG39900)	<a href="https://ucjeps.berkeley.edu/cgi-bin/new_detail.pl?&uk=CAS-BOT-BC66207" target="_blank">View Details</a>	
JEPS	JEPS120948	Azolla microphylla	Lowell Ahart		18550		2456403	2456403	Apr 20 2013	Butte		Wilson Creek, about 40 yards SW of the oak trees, about 1/2 mile N of the barn, about 3/4 mile N of the Honcut Cemetery, about 3.75 air miles NE of Honcut.	39.351667	-121.478306	not recorded	<a href="https://ucjeps.berkeley.edu/cgi-bin/new_detail.pl?&uk=JEPS120948" target="_blank">View Details</a>	
JEPS	JEPS102437	Azolla filiculoides	Lowell Ahart		8718		2455588	2455588	Jan 26 2011	Butte	21 m	On the east side of the parking lot, on the north side of Rutherford Road, about 1/4 mile west of Pennington Road, Gray Lodge Waterfowl Management Area, about 6 miles (air) SW of Gridley.	39.331000	-121.846000	not recorded	<a href="https://ucjeps.berkeley.edu/cgi-bin/new_detail.pl?&uk=JEPS102437" target="_blank">View Details</a>	
LA	LA211697	Azolla filiculoides	Mark A. Elvin;		7633		2456917	2456917	September 16 2014	San Luis Obispo	17.0 m	GUADALUPE DUNES, Guandalupe-Nipomo Dunes National Wildlife Refuge, "Colorado Pond," ca. 80 meters from south Refuge boundary.	34.9926	-120.5989	NAD 1983	<a href="https://ucjeps.berkeley.edu/cgi-bin/new_detail.pl?&uk=LA211697" target="_blank">View Details</a>	
CAS-BOT-BC	CAS-BOT-BC376137	Azolla filiculoides	Eve Laeger		513		2451879	2451879	30 Nov 2000	Kern	792 m	Western slope of the Southern Sierra Nevada. South Fork Valley. Bank of the South Fork Kern River, Kern Audubon Preserve	35.675000	-118.302778	not recorded	<a href="https://ucjeps.berkeley.edu/cgi-bin/new_detail.pl?&uk=CAS-BOT-BC376137" target="_blank">View Details</a>	
OBI	OBI43085	Azolla filiculoides	David J. Keil, Kathy Jones		15846		2445064	2445064	4-Apr-82	San Luis Obispo		Nipomo Mesa along Black Lake Canyon	35.056237	-120.564034	WGS84	<a href="https://ucjeps.berkeley.edu/cgi-bin/new_detail.pl?&uk=OBI43085" target="_blank">View Details</a>	
UCSB	UCSB21073	Azolla filiculoides	Keefe, Joseph				2439602	2439602	1967-04-21	San Luis Obispo	9 m	Floating in north edge of Oso Flaco Lake, northwest of Santa Maria	35.030000	-120.617500	NAD83	<a href="https://ucjeps.berkeley.edu/cgi-bin/new_detail.pl?&uk=UCSB21073" target="_blank">View Details</a>	
RSA	RSA756078	Azolla filiculoides	A. C. Sanders, Mark Elvin, Dave Fleitner		27131		2452858	2452858	2003-08-06	Los Angeles	280m	Newhall Ranch, Santa Clara Riverbed, below confluence of Castaic Creek, east of Del Valle	34.418611	-118.636944	not recorded	<a href="https://ucjeps.berkeley.edu/cgi-bin/new_detail.pl?&uk=RSA756078" target="_blank">View Details</a>	
CHSC	CHSC46038	Azolla microphylla	Lowell Ahart		697		2442422	2442422	1975-01-09	Butte	60 m	On the west side of North Honcut Creek, about 2 1/2 miles north and 3 miles east of Honcut, from Honcut go east to Dunstone Drive and stop when you get to the 'S' curve, then go west about 1/4 mile to North Honcut Creek.	39.364722	-121.475833	NAD 1983	<a href="https://ucjeps.berkeley.edu/cgi-bin/new_detail.pl?&uk=CHSC46038" target="_blank">View Details</a>	
HREC	HREC1085	Azolla filiculoides	A. H. M.	HF 	145		2436650	2436650	3-22-59	Mendocino		Lake pasture	38.997352	-123.071840	not recorded	<a href="https://ucjeps.berkeley.edu/cgi-bin/new_detail.pl?&uk=HREC1085" target="_blank">View Details</a>	
IRVC	IRVC23261	Azolla filiculoides	Fred M. Roberts		2029		2446264	2446264	Jul 17 1985	Orange	21 m	San Juan Capistrano: San Juan Creek at 405 Fwy bridge Southern Coastal	33.493767	-117.659812	WGS84	<a href="https://ucjeps.berkeley.edu/cgi-bin/new_detail.pl?&uk=IRVC23261" target="_blank">View Details</a>	
RSA	RSA146494	Azolla filiculoides	Peter H. Raven		16703		2437560	2437560	1961-09-17	San Bernardino	793m	Cajon Canyon below Cajon Station, at Cajon Campground	34.274200	-117.451200	NAD83	<a href="https://ucjeps.berkeley.edu/cgi-bin/new_detail.pl?&uk=RSA146494" target="_blank">View Details</a>	
CAS-BOT-BC	CAS-BOT-BC68337	Azolla filiculoides	Greg de Nevers		8125		2446835	2446835	8 Feb. 1987	Sonoma	400 - 400m m	Pepperwood Ranch Natural Preserve, 3500 Franz Valley Rd., Santa Rosa	38.566667	-122.700000	not recorded	<a href="https://ucjeps.berkeley.edu/cgi-bin/new_detail.pl?&uk=CAS-BOT-BC68337" target="_blank">View Details</a>	
CHSC	CHSC106105	Azolla microphylla	Lowell Ahart; John Dittes		16955		2455408	2455408	2010-07-30	Siskiyou	716 m	Along the west edge of the Shasta River, about 120 yards northwest of the East Louie Road Bridge, Shasta Big Springs Ranch, 1.6 miles (air) southwest of Big Springs Lake, 4.6 miles (air) northwest of Dwinnel Dam, 5.7 miles (air) southeast of Grenada.	41.590833	-122.438333	NULL	<a href="https://ucjeps.berkeley.edu/cgi-bin/new_detail.pl?&uk=CHSC106105" target="_blank">View Details</a>	
CAS-BOT-BC	CAS-BOT-BC66254	Azolla mexicana	M. S. Taylor; L. Ahart		5162		2445254	2445254	11/X/1982	Butte	21 m	Pennington quad. Graylodge Wildlife Refuge, m side of Rutherford Rd, ca. 1/2 mi e of Pennington Rd,	39.318428	-121.806910	Terrain Navigator 1:24,000 (copied from UC1509659)	<a href="https://ucjeps.berkeley.edu/cgi-bin/new_detail.pl?&uk=CAS-BOT-BC66254" target="_blank">View Details</a>	
RSA	RSA233312	Azolla filiculoides	Philip A. Munz		18060		2439979	2439979	1968-05-02	Inyo	1280m	Place on Hogback Creek, north end of Alabama Hills.	36.669300	-118.135600	WGS84	<a href="https://ucjeps.berkeley.edu/cgi-bin/new_detail.pl?&uk=RSA233312" target="_blank">View Details</a>	
JEPS	JEPS124325	Azolla filiculoides	Lowell Ahart		20570		2457316	2457316	Oct 20, 2015	Butte		About half way of and east of One Mile Pond, about 6 miles (air) east of Biggs.	39.426139	-121.624833	not recorded	<a href="https://ucjeps.berkeley.edu/cgi-bin/new_detail.pl?&uk=JEPS124325" target="_blank">View Details</a>	
UCR	UCR271712	Azolla filiculoides	Mitch Provance		17172	B	2455740	2455740	2011-Jun-27	San Bernardino	268 m	San Bernardino Valley, Near Colton, 0.3 mi. S of Agua Mansa Rd., at the confluence of the Rialto Channel and the Santa Ana River	34.044190	-117.353110	not recorded	<a href="https://ucjeps.berkeley.edu/cgi-bin/new_detail.pl?&uk=UCR271712" target="_blank">View Details</a>	
UCSB	UCSB52947	Azolla filiculoides	Roberts, Fred; Polek, M.				2445655	2445655	1983-11-16	Orange	2 m	Newport Beach; upper Newport Back Bay near Back Bay Drive, 3.0 km. W UCI campus center	33.646765	-117.874603	WGS84	<a href="https://ucjeps.berkeley.edu/cgi-bin/new_detail.pl?&uk=UCSB52947" target="_blank">View Details</a>	
CHSC	CHSC43601	Azolla filiculoides	Vernon Oswald		2361		2446916	2446916	1987-04-30	Butte	80 m	Butte Creek Reserve on the s side of Butte Creek, ne of the Skyway.	39.708889	-121.746389	NAD 1983	<a href="https://ucjeps.berkeley.edu/cgi-bin/new_detail.pl?&uk=CHSC43601" target="_blank">View Details</a>	
HSC	HSC33719	Azolla microphylla	Scott M. Kruse		55		2442557	2442557	24 May 1975	Humboldt		Samoa Dunes, off Samoa Blvd. across from boat landing	40.763150	-124.222030	WGS84	<a href="https://ucjeps.berkeley.edu/cgi-bin/new_detail.pl?&uk=HSC33719" target="_blank">View Details</a>	
CHSC	CHSC116021	Azolla filiculoides	Lowell Ahart		20570		2457316	2457316	2015-10-20	Butte	26 m	On the west side of the Feather River, about half way of and east of One Mile Pond, about 6 miles (air) east of Biggs.	39.426111	-121.624722	NULL	<a href="https://ucjeps.berkeley.edu/cgi-bin/new_detail.pl?&uk=CHSC116021" target="_blank">View Details</a>	
RSA	RSA0040411	Azolla filiculoides	Nick Jensen, Ed Kentner, Chris Winchell, Onkar Singh, Lorraine Washburn		920		2456754	2456754	2014-04-06	Kern	532m	Spring along Tunis Creek, approx. 3 air miles SW of Chimenez Road.	34.971908	-118.781899	not recorded	<a href="https://ucjeps.berkeley.edu/cgi-bin/new_detail.pl?&uk=RSA0040411" target="_blank">View Details</a>	
CHSC	CHSC46858	Azolla microphylla	Vernon Oswald		3990		2447776	2447776	1989-09-06	Butte	30 m	Hwy 162 just e of the railroad crossing at the Rice Experimant Station, ca. 2.5 mi sse of Richvale.	39.464722	-121.733333	NAD 1983	<a href="https://ucjeps.berkeley.edu/cgi-bin/new_detail.pl?&uk=CHSC46858" target="_blank">View Details</a>	
JEPS	JEPS113220	Azolla microphylla	Lowell Ahart		13562		2454146	2454146	02 14 2007	Butte	49 m	Dredge ponds along the east side of Wilson Creek, about 1/2 mile north of the Honcut Cemetary, about 3 3/4 miles (air) northeast of Honcut	39.351665	-121.478060	not recorded	<a href="https://ucjeps.berkeley.edu/cgi-bin/new_detail.pl?&uk=JEPS113220" target="_blank">View Details</a>	
CAS-BOT-BC	CAS-BOT-BC66232	Azolla filiculoides	Mary DeDecker		3047		2441713	2441713	1/30/73	Inyo	1170 m	Owens Valley, Artesian well ca. 1 mile east of Independence	36.799100	-118.142200	WGS84	<a href="https://ucjeps.berkeley.edu/cgi-bin/new_detail.pl?&uk=CAS-BOT-BC66232" target="_blank">View Details</a>	
LA	LA94039	Azolla filiculoides	Peter H. Raven;		14534		2436839	2436839	September 27 1959	Ventura	955 ft	SANTA MONICA MOUNTAINS, Hidden Valley, NW-side of Lake Sherwood.	34.139459	-118.870877	NAD27	<a href="https://ucjeps.berkeley.edu/cgi-bin/new_detail.pl?&uk=LA94039" target="_blank">View Details</a>	
SBBG	SBBG40056	Azolla filiculoides	H. M. Pollard				2436644	2436644	16-Mar-1959	Santa Barbara		Ganna Walska Estate (Lotusland), Sycamore Cyn Rd, Montecito	34.440600	-119.657800		<a href="https://ucjeps.berkeley.edu/cgi-bin/new_detail.pl?&uk=SBBG40056" target="_blank">View Details</a>	
UCD	UCD149960	Azolla filiculoides	William Anderson	s.n.			2438633	2438633	25 Aug 1964	Fresno	46 m	Firebaugh.	36.858889	-120.456111	not recorded	<a href="https://ucjeps.berkeley.edu/cgi-bin/new_detail.pl?&uk=UCD149960" target="_blank">View Details</a>	
SDSU	SDSU16204	Azolla filiculoides	Jon Rebman, Mike Mayer		7506		2452186	2452186	10/03/2001	San Diego	20 m	Mission Valley Preserve: along the San Diego River from Sefton Park to the Interstate 5 bridge	32.761670	-117.191670	not recorded	<a href="https://ucjeps.berkeley.edu/cgi-bin/new_detail.pl?&uk=SDSU16204" target="_blank">View Details</a>	
SD	SD112058	Azolla filiculoides	Linda Allen, Betsy Carpenter				2442493	2442493	Mar 21, 1975	Los Angeles		Santa Catalina Island, Cottonwood Creek	33.384600	-118.447900	WGS84	<a href="https://ucjeps.berkeley.edu/cgi-bin/new_detail.pl?&uk=SD112058" target="_blank">View Details</a>	
SBBG	SBBG41911	Azolla filiculoides	H. M. Pollard				2437927	2437927	19-Sep-1962	Ventura		Coyote Crk, ca. 0.25 mi N of Ventura River bridge, Foster Park	34.359000	-119.316000		<a href="https://ucjeps.berkeley.edu/cgi-bin/new_detail.pl?&uk=SBBG41911" target="_blank">View Details</a>	
SD	SD86073	Azolla filiculoides	R. Mitchel Beauchamp, R. C. Pierce		2698		2441105	2441105	Jun 02, 1971	San Diego	1007 m	In slow stream, Echo Dell.	32.900000	-116.650000	WGS84	<a href="https://ucjeps.berkeley.edu/cgi-bin/new_detail.pl?&uk=SD86073" target="_blank">View Details</a>	
UCR	UCR96383	Azolla filiculoides	George K. Helmkamp		1254		2450356	2450356	1996-Sep-29	Mono	2073 m	Spring [Layton Springs] on the east side of Lake Crowley 3.5 miles SSE of Benton Crossing	37.633330	-118.730000	not recorded	<a href="https://ucjeps.berkeley.edu/cgi-bin/new_detail.pl?&uk=UCR96383" target="_blank">View Details</a>	
GH	GH376904	Azolla filiculoides	P. A. Munz		18060		2439979	2439979	1968-05-02 - 1968-05-02	Unknown	1280 m	on Hogback Creek, north end of Alabama Hills	36.669300	-118.135600	WGS84	<a href="https://ucjeps.berkeley.edu/cgi-bin/new_detail.pl?&uk=GH376904" target="_blank">View Details</a>	
UCD	UCD73310	Azolla	D. PeBenito, J. Baty, C. Leonzo		36		2454509	2454509	12 Feb 2008	Sacramento	3 m	Cosumnes River Preserve. Along Franklin Blvd near Boardwalk Trail.	38.251336	-121.440046	NAD83	<a href="https://ucjeps.berkeley.edu/cgi-bin/new_detail.pl?&uk=UCD73310" target="_blank">View Details</a>	
CAS-BOT-BC	CAS-BOT-BC65172	Azolla filiculoides	Dana Adrian York		303		2450145	2450145	2 March 1996	Fresno	130 - 130m m	Ca 22 km E of Fresno, along the Friant-Kern Canal near Watts Valley Rd.	36.804167	-119.497222	not recorded	<a href="https://ucjeps.berkeley.edu/cgi-bin/new_detail.pl?&uk=CAS-BOT-BC65172" target="_blank">View Details</a>	
JEPS	JEPS127247	Azolla filiculoides	Lowell Ahart, John Dittes		21309		2457626	2457626	Aug 25, 2016	Tehama		Anderson River Park, 0.7 mile (air) upstream from Stillwater Creek Confluence, 1.8 miles (air) northeast of Balls Ferry Road exit from Interstate 5 in Anderson. Undesignated Section of San Buenaventura Land Grant.	40.470806	-122.261528	not recorded	<a href="https://ucjeps.berkeley.edu/cgi-bin/new_detail.pl?&uk=JEPS127247" target="_blank">View Details</a>	
JEPS	JEPS107680	Azolla filiculoides	Lowell Ahart		11703		2453475	2453475	04 14 2005	Butte	28 m	East of the railroad tracks, in the stream at the railroad bridge, north of Spruce Street, Gridley	39.375275	-121.698890	not recorded	<a href="https://ucjeps.berkeley.edu/cgi-bin/new_detail.pl?&uk=JEPS107680" target="_blank">View Details</a>	
CAS-BOT-BC	CAS-BOT-BC66203	Azolla filiculoides	Henry M. Pollard	s.n.			2437927	2437927	Sept. 19, 1962	Ventura		in Coyote Creek, ca. 1/4 mi. north of Ventura River bridge, Foster Park	34.359000	-119.316000	Terrain Nav. v. 8.7 (copied from SBBG34504)	<a href="https://ucjeps.berkeley.edu/cgi-bin/new_detail.pl?&uk=CAS-BOT-BC66203" target="_blank">View Details</a>	
CAS-BOT-BC	CAS-BOT-BC53694	Azolla filiculoides	John Thomas Howell; Gordon H. True		74884		2441119	2441119	June 16, 1971.	Kern	914 m	Sierra Nevada - Kelso Creek 7 miles south of Weldon	35.577738	-118.250915	GoogleEarth (copied from CAS656870)	<a href="https://ucjeps.berkeley.edu/cgi-bin/new_detail.pl?&uk=CAS-BOT-BC53694" target="_blank">View Details</a>	
JROH	JROH6	Azolla filiculoides	Lawrence J. Winship		16		2442368	2442368	11/16/1974	San Mateo		Jasper Ridge Biological Preserve, Stanford University. On and below Searsville Dam	37.407873	-122.245972	WGS84	<a href="https://ucjeps.berkeley.edu/cgi-bin/new_detail.pl?&uk=JROH6" target="_blank">View Details</a>	
CAS-BOT-BC	CAS-BOT-BC66230	Azolla filiculoides	Robert F. Thorne; P. Everett		35325		2438982	2438982	9 August 1965	Humboldt	3 m	Clam Beach County Park	40.996700	-124.113900	WGS84	<a href="https://ucjeps.berkeley.edu/cgi-bin/new_detail.pl?&uk=CAS-BOT-BC66230" target="_blank">View Details</a>	
UCSB	UCSB61353	Azolla filiculoides	Parikh, Anuja; Gale, Nathan				2449521	2449521	1994-06-17	Santa Barbara	37 m	In bottom areas of created wetland site Wildflower Wetland	34.80811	-120.59861	not recorded	<a href="https://ucjeps.berkeley.edu/cgi-bin/new_detail.pl?&uk=UCSB61353" target="_blank">View Details</a>	
CHSC	CHSC90953	Azolla filiculoides	Lowell Ahart		11703		2453475	2453475	2005-04-14	Butte	28 m	East of the railroad tracks, in the stream at the railroad bridge, north of Spruce Street, Gridley.	39.375278	-121.698889	NULL	<a href="https://ucjeps.berkeley.edu/cgi-bin/new_detail.pl?&uk=CHSC90953" target="_blank">View Details</a>	
RSA	RSA755370	Azolla filiculoides	Lowell A. Ahart		16412		2455113	2455113	2009-10-08	Butte	20m	In a deep large ditch on the east side of the road, about 20 yards east of Parking Lot 13, Gray Lodge Waterfowl Management Area, about 7 air miles southwest of Gridley.	39.308861	-121.837139	not recorded	<a href="https://ucjeps.berkeley.edu/cgi-bin/new_detail.pl?&uk=RSA755370" target="_blank">View Details</a>	
CAS-BOT-BC	CAS-BOT-BC66241	Azolla mexicana	John Thomas Howell		34825		2436833	2436833	Sept. 21, 1959	Plumas	1066 m	Crescent Mills	40.096670	-120.909720	Geolocate (copied from CAS900923)	<a href="https://ucjeps.berkeley.edu/cgi-bin/new_detail.pl?&uk=CAS-BOT-BC66241" target="_blank">View Details</a>	
CAS-BOT-BC	CAS-BOT-BC66236	Azolla filiculoides	Lowell Ahart		4850		2446149	2446149	March 24, 1985	Butte	100 - 100m m	south of Highway 70, at the intersection of Highway 70 and 191	39.601667	-121.618611	WGS84	<a href="https://ucjeps.berkeley.edu/cgi-bin/new_detail.pl?&uk=CAS-BOT-BC66236" target="_blank">View Details</a>	
GH	GH376897	Azolla mexicana	William Rains				2442657	2442687	1975-09-01 - 1975-10-01	Unknown		Subaco Rd., Sacramento Valley	38.923760	-121.746540	WGS84	<a href="https://ucjeps.berkeley.edu/cgi-bin/new_detail.pl?&uk=GH376897" target="_blank">View Details</a>	
RSA	RSA709378	Azolla filiculoides	A. C. Sanders		27137		2452858	2452858	2003-08-06	Los Angeles	320m	Newhall Ranch, Potrero Canyon, bottom of valley above old ranch headquarters	34.395833	-118.650000	not recorded	<a href="https://ucjeps.berkeley.edu/cgi-bin/new_detail.pl?&uk=RSA709378" target="_blank">View Details</a>	
CAS-BOT-BC	CAS-BOT-BC53689	Azolla filiculoides	Ernest C. Twisselmann		12734		2439364	2439364	August 26, 1966.	Kern	792 m	Sierra Nevada, the Greenhorn Range - Cedar Creek, 0.25 mile below the mouth of Lureau Creek	35.686980	-118.691867	Geolocate (copied from CAS644181)	<a href="https://ucjeps.berkeley.edu/cgi-bin/new_detail.pl?&uk=CAS-BOT-BC53689" target="_blank">View Details</a>	
JEPS	JEPS30313	Azolla filiculoides	Norma Baumback				2437791	2437791	May 06 1962	Madera		nw Madera City (1 mi s and 3 mi w of Dixieland Grammar School)	37.002710	-120.255710	not recorded	<a href="https://ucjeps.berkeley.edu/cgi-bin/new_detail.pl?&uk=JEPS30313" target="_blank">View Details</a>	
LA	LA206325	Azolla filiculoides	Peter H. Raven; Henry J. Thompson		14676	A	2436860	2436860	October 18 1959	Los Angeles	725 ft	Santa Monica Mountains, N arm of Malibu Lake	34.1114092697406	-118.755346664278	NAD 1927	<a href="https://ucjeps.berkeley.edu/cgi-bin/new_detail.pl?&uk=LA206325" target="_blank">View Details</a>	
JEPS	JEPS111348	Azolla filiculoides	R. V. Lansdown				2454218	2454218	Apr 27 2007	Butte		Oroville Wildlife Area, W of Oroville. Complex of deep basins around the car park on the northern margin of the Wildlife Area.	39.466428	-121.659804	WGS84	<a href="https://ucjeps.berkeley.edu/cgi-bin/new_detail.pl?&uk=JEPS111348" target="_blank">View Details</a>	
SD	SD69569	Azolla filiculoides	Robert F. Thorne		36659		2439383	2439383	Sep 14, 1966	Los Angeles	53 m	Santa Catalina Island, Lower Middle Ranch Canyon, ca.75 miles above Ben Weston Beach, on surface of small shallow stream	33.366915	-118.470039	WGS84	<a href="https://ucjeps.berkeley.edu/cgi-bin/new_detail.pl?&uk=SD69569" target="_blank">View Details</a>	
SBBG	SBBG12498	Azolla filiculoides	E. R. Blakley		2680		2436644	2436644	16-Mar-1959	Santa Barbara	152 m	Lotusland Estate, corner of Coldsprings Rd and St Hwy 150	34.440700	-119.659200		<a href="https://ucjeps.berkeley.edu/cgi-bin/new_detail.pl?&uk=SBBG12498" target="_blank">View Details</a>	
CHSC	CHSC117705	Azolla microphylla	Lowell Ahart		21342		2457636	2457636	2016-09-04	Butte	30 m	Rice field. Peter Ahart Ranch, about 2 miles north and 1/2 mile east of Honcut, about 12 miles (air) south of Oroville.	39.360833	-121.529444	NULL	<a href="https://ucjeps.berkeley.edu/cgi-bin/new_detail.pl?&uk=CHSC117705" target="_blank">View Details</a>	
IRVC	IRVC20498	Azolla filiculoides	Fred M. Roberts, M. L. Polek		1149		2445655	2445655	Nov 16 1983	Orange	2 m	Upper Newport Back Bay, near Bayside Dr., 1.0km SSW Bayview School, 3.0km W UCI campus center, Newport Beach	33.646765	-117.874603	WGS84	<a href="https://ucjeps.berkeley.edu/cgi-bin/new_detail.pl?&uk=IRVC20498" target="_blank">View Details</a>	
CAS-BOT-BC	CAS-BOT-BC53692	Azolla filiculoides	John Thomas Howell		44108		2439800	2439800	Nov. 5, 1967	Kern	822 m	Sierra Nevada - Flood bed of the Kern River 2 miles above Kernville	35.778661	-118.437650	Google Earth (copied from CAS621469)	<a href="https://ucjeps.berkeley.edu/cgi-bin/new_detail.pl?&uk=CAS-BOT-BC53692" target="_blank">View Details</a>	
CHSC	CHSC95989	Azolla microphylla	Lowell Ahart		13562		2454146	2454146	2007-02-14	Butte	49 m	Dredge ponds along the east side of Wilson Creek, about 1/2 mile north of the Honcut Cemetary, about 3 3/4 miles (air) northeast of Honcut.	39.351667	-121.478056	NULL	<a href="https://ucjeps.berkeley.edu/cgi-bin/new_detail.pl?&uk=CHSC95989" target="_blank">View Details</a>	
RSA	RSA625292	Azolla microphylla	Mary DeDecker		5704		2445964	2445964	1984-09-20	Inyo	1165m	Owens Valley. West of LA Aqueduct, spring field south of Citrus (Mazourka) Road, southeast of Independence	36.797300	-118.179300	WGS84	<a href="https://ucjeps.berkeley.edu/cgi-bin/new_detail.pl?&uk=RSA625292" target="_blank">View Details</a>	
CAS-BOT-BC	CAS-BOT-BC66248	Azolla mexicana	Ernest C. Twisselmann		6632		2437578	2437578	October 5, 1961	Kern	152 m	Kern River at Hart Memorial Park	35.450879	-118.910321	Google Earth (copied from UCD92629)	<a href="https://ucjeps.berkeley.edu/cgi-bin/new_detail.pl?&uk=CAS-BOT-BC66248" target="_blank">View Details</a>	
UCR	UCR43227	Azolla filiculoides	David J. Keil, E. A. Wise		16309		2445153	2445153	1982-Jul-2	San Luis Obispo		Central Coast, Nipomo Mesa area west of Pomeroy Rd along Black Lake Canyon trail	35.056940	-120.547780	not recorded	<a href="https://ucjeps.berkeley.edu/cgi-bin/new_detail.pl?&uk=UCR43227" target="_blank">View Details</a>	
CAS-BOT-BC	CAS-BOT-BC66245	Azolla mexicana	Gordon H. True		5172		2440574	2440574	Dec. 18, 1969	Nevada	396 m	Reservoir on tributary to Dry Creek on Lime Kiln Rd. just E. of Banner Grange	39.092592	-121.111746	Geolocate (copied from CAS880509)	<a href="https://ucjeps.berkeley.edu/cgi-bin/new_detail.pl?&uk=CAS-BOT-BC66245" target="_blank">View Details</a>	
IRVC	IRVC26110	Azolla filiculoides	A. C. Sanders, Mark Elvin, Dave Fleitner		27137		2452858	2452858	Aug 06 2003	Los Angeles	280 m	Newhall Ranch, Santa Clara Riverbed, below confluence of Castaic Creek, east of Del Valle NE end of Santa Susana Mtns.	34.418611	-118.636944	WGS84	<a href="https://ucjeps.berkeley.edu/cgi-bin/new_detail.pl?&uk=IRVC26110" target="_blank">View Details</a>	
CAS-BOT-BC	CAS-BOT-BC66256	Azolla mexicana	Lowell Ahart	s.n.			2442422	2442422	Jan. 9, 1975	Butte	60 m	Near North Honcut Creek, 2 miles N & 3 miles E of Honcut	39.364722	-121.475833	(copied from CHSC46038)	<a href="https://ucjeps.berkeley.edu/cgi-bin/new_detail.pl?&uk=CAS-BOT-BC66256" target="_blank">View Details</a>	
UC	UC1302459	Azolla filiculoides	Robert F. Thorne and P. C. Everett		33484		2438433	2438433	Feb 7 1964	Los Angeles	152 m	seepage pool below dam Middle Canyon Creek; Santa Catalina Isl.	33.356396	-118.445900	not recorded	<a href="https://ucjeps.berkeley.edu/cgi-bin/new_detail.pl?&uk=UC1302459" target="_blank">View Details</a>	
CHSC	CHSC36303	Azolla filiculoides	M. S. Taylor; L. Ahart, J. Jokerst		4370		2445088	2445088	1982-04-28	Butte	19 m	Ca. 1/2 mi s of HQ on Graylodge Waterfowl Refuge, ca. 12 mi sw of Gridley.	39.315278	-121.827222	NAD 1983	<a href="https://ucjeps.berkeley.edu/cgi-bin/new_detail.pl?&uk=CHSC36303" target="_blank">View Details</a>	
UC	UC1562367	Azolla filiculoides	Lowell Ahart		6473		2448032	2448032	May 20 1990	Butte	30 m	ca. 4 1/2 mi sw of Oroville (ca. 1/4 mi s of Feather River, ca. 4/10 mi w of Pacific Heights Rd.)	39.446500	-121.622800	not recorded	<a href="https://ucjeps.berkeley.edu/cgi-bin/new_detail.pl?&uk=UC1562367" target="_blank">View Details</a>	
SD	SD238395	Azolla filiculoides	Jon P. Rebman, W. Schmidtmann & G. Kenney		26625		2456434	2456434	May 21, 2013	San Diego	24 m	Camp Pendleton: south-central portion of Base; Training Area SMR2; northeast of the intersection of Vandegrift Blvd. and Basilone Road; along the southeast side of the Santa Margarita River	33.318290	-117.335600	not recorded	<a href="https://ucjeps.berkeley.edu/cgi-bin/new_detail.pl?&uk=SD238395" target="_blank">View Details</a>	
CAS-BOT-BC	CAS-BOT-BC66250	Azolla mexicana	Ernest C. Twisselmann		16271		2440497	2440497	October 2, 1969	Tulare	121 m	Deer Creek, 8.4 miles east of Pixley	35.964737	-119.142190	Terrain Navigator 1:24,000 (copied from JEPS60773)	<a href="https://ucjeps.berkeley.edu/cgi-bin/new_detail.pl?&uk=CAS-BOT-BC66250" target="_blank">View Details</a>	
UCSB	UCSB40957	Azolla filiculoides	Baley, Dave				2444728	2444728	1981-05-03	Santa Barbara	228 m	Approximately 2/3 mile southeast of Rancho San Fernando Rey along extreme southeast edge of Lake Cachuma, in an area 200 yards either side of drainage of unnamed creek between dirt road and water's edge on 4/26/1981	34.548800	-119.897500	NAD83	<a href="https://ucjeps.berkeley.edu/cgi-bin/new_detail.pl?&uk=UCSB40957" target="_blank">View Details</a>	
SD	SD171259	Azolla filiculoides	Jeannie Gregory, Joe Barth		1834		2453575	2453575	Jul 23, 2005	San Diego	601 m	Town of Alpine, Viejas West private property, 1.6 miles WSW of Viejas Mountain summit, 0.6 miles NW of intersection of Anderson Road and Victoria Drive	32.856730	-116.753580	not recorded	<a href="https://ucjeps.berkeley.edu/cgi-bin/new_detail.pl?&uk=SD171259" target="_blank">View Details</a>	
CHSC	CHSC31523	Azolla microphylla	L. Ahart		1015		2442837	2442837	1976-02-28	Butte	57 m	Near North Honcut Creek. Ca. 2.5 mi n and 3 mi e of Honcut.	39.357222	-121.488333	NAD 1983	<a href="https://ucjeps.berkeley.edu/cgi-bin/new_detail.pl?&uk=CHSC31523" target="_blank">View Details</a>	
RSA	RSA595164	Azolla filiculoides	Steve Boyd		8693		2450199	2450199	1996-04-25	Los Angeles	915m	Liebre Mountains, Knapp Ranch area at upper end of Castaic Creek drainage in broad alluvial valley at head of Cienaga Canyon, south of Liebre Mountain.	34.679167	-118.665278	not recorded	<a href="https://ucjeps.berkeley.edu/cgi-bin/new_detail.pl?&uk=RSA595164" target="_blank">View Details</a>	
CAS-BOT-BC	CAS-BOT-BC183576	Azolla filiculoides	James R. Shevock		11087		2446149	2446149	24 Mar 1985	Kern	1036 m	Grapevine Canyon, east base of Owens Peak and east of L.A. Aqueduct	35.725000	-117.900000	not recorded	<a href="https://ucjeps.berkeley.edu/cgi-bin/new_detail.pl?&uk=CAS-BOT-BC183576" target="_blank">View Details</a>	
UCR	UCR99570	Azolla filiculoides	Julie A. Greene, Steve Boyd, D. Bramlet, H. Flores, H. Ochoterana		1418		2449178	2449178	1993-Jul-9	Riverside	433 m	San Jacinto Valley, San Jacinto Wildlife Area [northwest of Lakeview]	33.850000	-117.133330	not recorded	<a href="https://ucjeps.berkeley.edu/cgi-bin/new_detail.pl?&uk=UCR99570" target="_blank">View Details</a>	
UC	UC1792816	Azolla	A. C. Sanders		20557		2450559	2450559	Apr 20 1997	Kern	762 m	San Emigdio Range: San Emigdio Ranch, along dirt road from San Emidgio Canyon south to Los Lobos Creek	34.948890	-119.214720	not recorded	<a href="https://ucjeps.berkeley.edu/cgi-bin/new_detail.pl?&uk=UC1792816" target="_blank">View Details</a>	
UCR	UCR214668	Azolla filiculoides	A. C. Sanders, Dan S. Cooper		38155		2455317	2455317	2010-Apr-30	Los Angeles	24 m	South Coast, Madrona Marsh, Torrance	33.826110	-118.342780	not recorded	<a href="https://ucjeps.berkeley.edu/cgi-bin/new_detail.pl?&uk=UCR214668" target="_blank">View Details</a>	
CHSC	CHSC103016	Azolla microphylla	Lowell Ahart		16412		2455113	2455113	2009-10-08	Butte	19 m	In a deep large ditch, on the east side of the road, about 20 yards east of Parking Lot 13, Gray Lodge Waterfowl Management Area, about 7 miles (air) southwest of Gridley.	39.308889	-121.837222	NULL	<a href="https://ucjeps.berkeley.edu/cgi-bin/new_detail.pl?&uk=CHSC103016" target="_blank">View Details</a>	
SBBG	SBBG17387	Azolla filiculoides	E. R. Blakley		6095		2438237	2438237	26-Jul-1963	Santa Barbara	335 m	N fork of La Brea Crk 0.25 mi S of Webber Ranch	34.916400	-120.143100		<a href="https://ucjeps.berkeley.edu/cgi-bin/new_detail.pl?&uk=SBBG17387" target="_blank">View Details</a>	
CDA	CDA42499	Azolla filiculoides	F. J. Willmarth	s.n.			2436295	2436324	Apr 1958	Riverside	0 m	Reservoir, Hemet Valley.	33.666640	-116.693690	WGS84	<a href="https://ucjeps.berkeley.edu/cgi-bin/new_detail.pl?&uk=CDA42499" target="_blank">View Details</a>	
GH	GH376896	Azolla mexicana	Steven Ela				2442049	2442049	summer 1974	Unknown		Graylodge State Waterfowl Area	39.317158	-121.816096	WGS84	<a href="https://ucjeps.berkeley.edu/cgi-bin/new_detail.pl?&uk=GH376896" target="_blank">View Details</a>	
SBBG	SBBG116284	Azolla filiculoides	R. Burgess, P. Munro		1159		2449180	2449180	11-Jul-1993	Ventura	152 m	Santa Clara River flood plain, E of Fillmore Fish Hatchery	34.389000	-118.871000		<a href="https://ucjeps.berkeley.edu/cgi-bin/new_detail.pl?&uk=SBBG116284" target="_blank">View Details</a>	
CHSC	CHSC27	Azolla filiculoides	M. Anthony				2437706	2437706	1962-02-10	Butte	36 m	Oxbow Lake inlet, e. of Sacramento River.	39.730278	-121.946667	NAD 1983	<a href="https://ucjeps.berkeley.edu/cgi-bin/new_detail.pl?&uk=CHSC27" target="_blank">View Details</a>	
CHSC	CHSC46166	Azolla filiculoides	Lowell Ahart		708		2442488	2442488	1975-03-16	Placer	41 m	About 1/2 mile north-east of the intersection of Wise Road and McCortney Road, north-east of Lincoln.	38.931667	-121.240556	NAD 1983	<a href="https://ucjeps.berkeley.edu/cgi-bin/new_detail.pl?&uk=CHSC46166" target="_blank">View Details</a>	
CHSC	CHSC46039	Azolla microphylla	Lowell Ahart		699		2442438	2442438	1975-01-25	Colusa	30 m	On the south side of Norman Road, about 1 mile west of Princeton.	39.406389	-122.030278	NAD 1983	<a href="https://ucjeps.berkeley.edu/cgi-bin/new_detail.pl?&uk=CHSC46039" target="_blank">View Details</a>	
UCSB	UCSB28464	Azolla filiculoides	Russum, J.				2441829	2441829	1973-05-26	Santa Cruz	149 m	Below Hazel Rd., Boulder Creek	37.125580	-122.127410	WGS84	<a href="https://ucjeps.berkeley.edu/cgi-bin/new_detail.pl?&uk=UCSB28464" target="_blank">View Details</a>	
SD	SD178109	Azolla microphylla	A. C. Sanders, Mark Elvin		25227		2452446	2452446	Jun 20, 2002	Los Angeles	289 m	Northeast end of Santa Susan Mountains; Santa Clara riverbed at confluence with Castaic Creek, near and above bench mark 926, at foot of bluffs on south side of river.	34.200000	-118.626670	not recorded	<a href="https://ucjeps.berkeley.edu/cgi-bin/new_detail.pl?&uk=SD178109" target="_blank">View Details</a>	
SBBG	SBBG32137	Azolla filiculoides	R. N. Philbrick with R. F. Thorne	B	67	-223	2439629	2439629	18-May-1967	Los Angeles		lower Middle Ranch Cyn crk	33.364600	-118.466100		<a href="https://ucjeps.berkeley.edu/cgi-bin/new_detail.pl?&uk=SBBG32137" target="_blank">View Details</a>	
GH	GH376895	Azolla mexicana	Steven Ela				2442414	2442414	summer 1975	Unknown		Graylodge State Waterfowl Area	39.317158	-121.816096	WGS84	<a href="https://ucjeps.berkeley.edu/cgi-bin/new_detail.pl?&uk=GH376895" target="_blank">View Details</a>	
UCR	UCR245000	Azolla filiculoides	Jon P. Rebman, Victoria Marshall, Tom Barckley		24995		2456105	2456105	2012-Jun-26	San Diego	930 m	Peninsular Range, Cleveland National Forest, vicinity of Buckman Springs, NE of Morena Reservoir, southeast of Morena Stokes Valley/Corral Canyon Road and west of Buckman Springs Road, along streambed. Square: S22	32.704810	-116.506500	not recorded	<a href="https://ucjeps.berkeley.edu/cgi-bin/new_detail.pl?&uk=UCR245000" target="_blank">View Details</a>	
CAS-BOT-BC	CAS-BOT-BC66235	Azolla filiculoides	Lowell Ahart		3214		2444875	2444875	Sept. 27, 1981	Butte	80 - 80m m	North-east of Palermo	39.464444	-121.471389	(copied from CHSC34148)	<a href="https://ucjeps.berkeley.edu/cgi-bin/new_detail.pl?&uk=CAS-BOT-BC66235" target="_blank">View Details</a>	
UCR	UCR265434	Azolla filiculoides	Ann Howald, Christina Freeman		3411		2457175	2457175	2015-Jun-1	Sonoma	362 m	Inner North Coast Ranges, Annadel State Park, Ledson Marsh, northwest corner, south of Marsh Trail	38.410970	-122.601530	not recorded	<a href="https://ucjeps.berkeley.edu/cgi-bin/new_detail.pl?&uk=UCR265434" target="_blank">View Details</a>	
UCD	UCD146925	Azolla filiculoides	Chuck Hughes		307		2456049	2456049	1 May 2012	Mendocino	403 m	Little Lake Valley, north of Willits.	39.448053	-123.341445	WGS84	<a href="https://ucjeps.berkeley.edu/cgi-bin/new_detail.pl?&uk=UCD146925" target="_blank">View Details</a>	
SEINET	SEINET4142883	Azolla filiculoides	R. G. Swinney		9335		2454719	2454719	9 9 2008	Los Angeles	960m	San Gabriel Mtns. Little Rock Creek, 0.2 mil north of Little Rock Reservoir. (Pacifico Mountain 7.5' Q.).; 0	34.487220	-118.021940	not recorded	<a href="https://ucjeps.berkeley.edu/cgi-bin/new_detail.pl?&uk=SEINET4142883" target="_blank">View Details</a>	
SD	SD230943	Azolla filiculoides	James Shevock		11087		2446149	2446149	Mar 24, 1985	Kern	1036 m	Eastern slope of the Southern Sierra Nevada. Grapevine Canyon, east base of Owens Peak and east of L.A. Aqueduct.	35.725000	-117.900000	not recorded	<a href="https://ucjeps.berkeley.edu/cgi-bin/new_detail.pl?&uk=SD230943" target="_blank">View Details</a>	
RSA	RSA790529	Azolla filiculoides	James R. Shevock		11087		2446149	2446149	1985-03-24	Kern	1037m	Eastern slope of the Southern Sierra Nevada: Grapevine Canyon, east base of Owens Peak and east of L.A. Aqueduct.	35.725000	-117.900000	not recorded	<a href="https://ucjeps.berkeley.edu/cgi-bin/new_detail.pl?&uk=RSA790529" target="_blank">View Details</a>	
CAS-BOT-BC	CAS-BOT-BC53687	Azolla filiculoides	Ernest C. Twisselmann		8431		2438192	2438192	June 11, 1963.	Kern	1188 m	Tehachapi-Kernville Region - Erskine Creek, Piute Mountains	35.611390	-118.489720	WGS84	<a href="https://ucjeps.berkeley.edu/cgi-bin/new_detail.pl?&uk=CAS-BOT-BC53687" target="_blank">View Details</a>	
UCD	UCD42045	Azolla filiculoides	Geri Hulse-Stephens		633		2452066	2452066	5 Jun 2001	Lake	944 m	Goat Mountain. Bear Wallow.	39.233333	-122.716667	not recorded	<a href="https://ucjeps.berkeley.edu/cgi-bin/new_detail.pl?&uk=UCD42045" target="_blank">View Details</a>	
SD	SD231449	Azolla filiculoides	Jon P. Rebman, Victoria Marshall & Tom Barckley		24995		2456105	2456105	Jun 26, 2012	San Diego	929 m	Cleveland National Forest: vicinity of Buckman Springs, NE of Morena Reservoir; south of Morena Stokes Valley/Corral Canyon Rd. and west of Buckman Springs Road; along streambed	32.704820	-116.506470	not recorded	<a href="https://ucjeps.berkeley.edu/cgi-bin/new_detail.pl?&uk=SD231449" target="_blank">View Details</a>	
CAS-BOT-BC	CAS-BOT-BC66246	Azolla mexicana	Philip Carlstroem	s.n.			2440544	2440544	November 18, 1969	Lake		SE of Kelseyville on road to Hoberg's at Cold Ceek	38.926300	-122.803970	GoogleMaps via BerkeleyMapper	<a href="https://ucjeps.berkeley.edu/cgi-bin/new_detail.pl?&uk=CAS-BOT-BC66246" target="_blank">View Details</a>	
SBBG	SBBG132775	Azolla filiculoides	R. Burgess, M. Elvin		7708		2454282	2454282	30-Jun-2007	Ventura	4 m	Santa Clara River Channel, 3-400 m N of Victoria St Bridge	34.236100	-119.216400		<a href="https://ucjeps.berkeley.edu/cgi-bin/new_detail.pl?&uk=SBBG132775" target="_blank">View Details</a>	
OBI	OBI80009	Azolla microphylla	David J. Keil, with V. L. Holland		31809		2456456	2456456	6/12/2013	San Luis Obispo		Adelaida Cellars Vineyard and Walnut Grove	35.648333	-120.805486	not recorded	<a href="https://ucjeps.berkeley.edu/cgi-bin/new_detail.pl?&uk=OBI80009" target="_blank">View Details</a>	
CAS-BOT-BC	CAS-BOT-BC66255	Azolla mexicana	M. S. Taylor; L. Ahart; J. Jokerst		4370		2445088	2445088	28/IV/1982	Butte	19 m	Pennington quad., ca. 1/2 mi s of HQ on Graylodge Waterfowl Refuge, ca. 12 mi sw of Gridley	39.320090	-121.805760	BerkeleyMapper (rlm)	<a href="https://ucjeps.berkeley.edu/cgi-bin/new_detail.pl?&uk=CAS-BOT-BC66255" target="_blank">View Details</a>	
